쉼터명,쉼터 종류,쉼터 유형,주소,운영시간,휴무일,운영시작일,운영종료일,설치장소,면적,이용가능인원,냉난방기,추천날씨,실내/외,Wi-Fi,충전시설,공기정화기,decimalLatitude,decimalLongitude
KT 친절텔레콤 신도림점,기후동행쉼터,통신사 대리점,"서울 구로구 경인로 661 107호 (신도림동, 신도림1차푸르지오)",09~19시,,,,,,,Y,"['폭염', '비', '한파', '눈']",실내,Y,Y,,37.50966195,126.8879864
KT 친절텔레콤 대림삼거리점,기후동행쉼터,통신사 대리점,서울 동작구 시흥대로 658 102호 (신대방동),09~19시,,,,,,,Y,"['폭염', '비', '한파', '눈']",실내,Y,Y,,37.49037497,126.9080767
KT 이루리_신정점,기후동행쉼터,통신사 대리점,서울 양천구 중앙로 235 (신정동),09~19시,,,,,,,Y,"['폭염', '비', '한파', '눈']",실내,Y,Y,,37.51737478,126.8538301
KT 이루리_구로점,기후동행쉼터,통신사 대리점,"서울 구로구 가마산로 285 101호 (구로동, 비즈트위트레드)",09~19시,,,,,,,Y,"['폭염', '비', '한파', '눈']",실내,Y,Y,,37.49710512,126.8916862
KT 이루리 신월점 ,기후동행쉼터,통신사 대리점,서울 양천구 지양로 77 (신월동),09~19시,,,,,,,Y,"['폭염', '비', '한파', '눈']",실내,Y,Y,,37.52232668,126.8332202
KT 영웅앤제이 가양역점,기후동행쉼터,통신사 대리점,서울 강서구 화곡로 402 1층 가양역 홈플러스옆 (등촌동),09~19시,,,,,,,Y,"['폭염', '비', '한파', '눈']",실내,Y,Y,,37.55913334,126.8543627
KT 씨엔에프텔레콤 등촌점,기후동행쉼터,통신사 대리점,서울 강서구 공항대로41길 65 그랜드종합 상가 1층 (등촌동),09~19시,,,,,,,Y,"['폭염', '비', '한파', '눈']",실내,Y,Y,,37.56079342,126.8461204
KT 주식회사 케이비 등촌역점,기후동행쉼터,통신사 대리점,"서울 양천구 목동중앙북로7길 13 1층 105호 KT매장 (목동, 남강빌딩)",09~19시,,,,,,,Y,"['폭염', '비', '한파', '눈']",실내,Y,Y,,37.54874439,126.8672813
KT 케이비_염창역점,기후동행쉼터,통신사 대리점,서울 양천구 목동중앙본로 123 101호 102호 (목동),09~19시,,,,,,,Y,"['폭염', '비', '한파', '눈']",실내,Y,Y,,37.54655764,126.8714839
KT 와이씨 녹두미림점,기후동행쉼터,통신사 대리점,"서울 관악구 대학길 16 1층 KT매장 (신림동, 녹두빌딩)",09~19시,,,,,,,Y,"['폭염', '비', '한파', '눈']",실내,Y,Y,,37.47004008,126.9378997
KT 홍익텔레콤_신대방삼거리점,기후동행쉼터,통신사 대리점,서울 동작구 상도로 82 101호 (대방동),09~19시,,,,,,,Y,"['폭염', '비', '한파', '눈']",실내,Y,Y,,37.49947377,126.9297014
KT 홍익텔레콤_이수점,기후동행쉼터,통신사 대리점,서울 동작구 동작대로 107 덕산건물 1층 (사당동),09~19시,,,,,,,Y,"['폭염', '비', '한파', '눈']",실내,Y,Y,,37.48608945,126.9818247
KT 인성피플스_노량진역점,기후동행쉼터,통신사 대리점,"서울 동작구 노량진로 150 1층 (노량진동, 삼영빌딩)",09~19시,,,,,,,Y,"['폭염', '비', '한파', '눈']",실내,Y,Y,,37.51345929,126.9426033
KT 인성피플스_신림역점,기후동행쉼터,통신사 대리점,서울 관악구 남부순환로 1604 1층 (신림동),09~19시,,,,,,,Y,"['폭염', '비', '한파', '눈']",실내,Y,Y,,37.48392841,126.9289394
KT 다움 시흥사거리점,기후동행쉼터,통신사 대리점,서울 금천구 시흥대로 236 와이즈플레이스 1동 101호 (시흥동),09~19시,,,,,,,Y,"['폭염', '비', '한파', '눈']",실내,Y,Y,,37.45501813,126.9010021
KT 한백이동통신 공항시장역점,기후동행쉼터,통신사 대리점,서울 강서구 방화동로 35 (방화동),09~19시,,,,,,,Y,"['폭염', '비', '한파', '눈']",실내,Y,Y,,37.56404225,126.8106745
KT 한백이동통신 본동시장점,기후동행쉼터,통신사 대리점,서울 강서구 화곡로 206 김대근한의원 1층 3호 (화곡동),09~19시,,,,,,,Y,"['폭염', '비', '한파', '눈']",실내,Y,Y,,37.54370354,126.8436205
KT 한백이동통신_송정역점,기후동행쉼터,통신사 대리점,서울 강서구 공항대로 24 1층 송정역 4번출구 50 M (공항동),09~19시,,,,,,,Y,"['폭염', '비', '한파', '눈']",실내,Y,Y,,37.56117124,126.8099514
KT 한백이동통신 발산파크점,기후동행쉼터,통신사 대리점,서울 강서구 공항대로 261 (마곡동),09~19시,,,,,,,Y,"['폭염', '비', '한파', '눈']",실내,Y,Y,,37.55915323,126.836521
KT 한백이동통신 마곡점,기후동행쉼터,통신사 대리점,"서울 강서구 공항대로 168 747 110 (마곡동, 타워)",09~19시,,,,,,,Y,"['폭염', '비', '한파', '눈']",실내,Y,Y,,,
KT 솔트네트워크_오류동역점,기후동행쉼터,통신사 대리점,서울 구로구 경인로20길 10 1층 KT매장 (오류동),09~19시,,,,,,,Y,"['폭염', '비', '한파', '눈']",실내,Y,Y,,37.49531287,126.8436936
KT 솔트네트워크_개봉역프라자점,기후동행쉼터,통신사 대리점,"서울 구로구 경인로40길 47 105-106호 (개봉동, 개봉역프라자)",09~19시,,,,,,,Y,"['폭염', '비', '한파', '눈']",실내,Y,Y,,,
KT 솔트네트워크_화곡중앙점,기후동행쉼터,통신사 대리점,서울 강서구 가로공원로76길 56 1층 KT (화곡동),09~19시,,,,,,,Y,"['폭염', '비', '한파', '눈']",실내,Y,Y,,37.53453435,126.8378185
KT 화이트정보통신_파리공원점,기후동행쉼터,통신사 대리점,"서울 양천구 목동서로 61 우리은행건물 1층 107호 (목동, 부영그린타운1차앞)",09~19시,,,,,,,Y,"['폭염', '비', '한파', '눈']",실내,Y,Y,,37.53637624,126.8795026
KT 연세컴퍼니_목동사거리점,기후동행쉼터,통신사 대리점,서울 강서구 등촌로 25 (화곡동),09~19시,,,,,,,Y,"['폭염', '비', '한파', '눈']",실내,Y,Y,,37.53218958,126.8635378
KT 연세컴퍼니_문래역점,기후동행쉼터,통신사 대리점,"서울 영등포구 선유로 63 108호 문래역 (문래동6가, EEU동신타워)",09~19시,,,,,,,Y,"['폭염', '비', '한파', '눈']",실내,Y,Y,,37.51965256,126.8890496
KT 연세컴퍼니_우장산역점,기후동행쉼터,통신사 대리점,"서울 강서구 강서로45길 9 1층 우장산역 (화곡동, 경신빌딩)",09~19시,,,,,,,Y,"['폭염', '비', '한파', '눈']",실내,Y,Y,,37.54779837,126.8356404
KT 연세컴퍼니_신정네거리역점,기후동행쉼터,통신사 대리점,서울 양천구 중앙로 263 (신정동),09~19시,,,,,,,Y,"['폭염', '비', '한파', '눈']",실내,Y,Y,,37.51975021,126.8527622
KT 연세컴퍼니_방화역점,기후동행쉼터,통신사 대리점,"서울 강서구 금낭화로 135 1층 107호 108호 (방화동, 금강프라자빌딩)",09~19시,,,,,,,Y,"['폭염', '비', '한파', '눈']",실내,Y,Y,,37.57744501,126.8124381
KT 연세컴퍼니_당산역점,기후동행쉼터,통신사 대리점,서울 영등포구 양평로 18 (당산동6가),09~19시,,,,,,,Y,"['폭염', '비', '한파', '눈']",실내,Y,Y,,37.5330124,126.9042532
KT 화이트정보통신_가산역점,기후동행쉼터,통신사 대리점,"서울 금천구 벚꽃로 298 1층 108호 KT (가산동, 대륭포스트타워6차)",09~19시,,,,,,,Y,"['폭염', '비', '한파', '눈']",실내,Y,Y,,37.48144017,126.8838717
KT 화이트정보통신_사당점,기후동행쉼터,통신사 대리점,서울 동작구 남부순환로 2061 KT매장 (사당동),09~19시,,,,,,,Y,"['폭염', '비', '한파', '눈']",실내,Y,Y,,37.47690406,126.9777876
KT 화이트정보통신_구로시장점,기후동행쉼터,통신사 대리점,서울 구로구 도림로 69 1층 코너매장 (구로동),09~19시,,,,,,,Y,"['폭염', '비', '한파', '눈']",실내,Y,Y,,37.48963311,126.8910472
KT (주)예스모바일_구로디지털단지역점,기후동행쉼터,통신사 대리점,서울 구로구 시흥대로 577 (구로동),09~19시,,,,,,,Y,"['폭염', '비', '한파', '눈']",실내,Y,Y,,37.48444049,126.9022513
KT (주)예스모바일_ 독산씨티렉스,기후동행쉼터,통신사 대리점,서울 금천구 시흥대로 399 (독산동),09~19시,,,,,,,Y,"['폭염', '비', '한파', '눈']",실내,Y,Y,,37.46935918,126.8970019
KT (주)삼윈_까치산역점,기후동행쉼터,통신사 대리점,서울 강서구 강서로16길 1 (화곡동),09~19시,,,,,,,Y,"['폭염', '비', '한파', '눈']",실내,Y,Y,,37.53266183,126.8464702
KT (주)삼윈_여의도점,기후동행쉼터,통신사 대리점,서울 영등포구 여의나루로 42 여의도종합 상가 117호 (여의도동),09~19시,,,,,,,Y,"['폭염', '비', '한파', '눈']",실내,Y,Y,,37.52147023,126.9249711
KT 일등텔레콤 화곡역점,기후동행쉼터,통신사 대리점,서울 강서구 화곡로 157 103호 일부 (화곡동),09~19시,,,,,,,Y,"['폭염', '비', '한파', '눈']",실내,Y,Y,,37.54157779,126.8391075
KT 대명텔레콤 청담점,기후동행쉼터,통신사 대리점,서울 강남구 선릉로 812 1층 2층 (청담동),09~19시,,,,,,,Y,"['폭염', '비', '한파', '눈']",실내,Y,Y,,37.52430491,127.0397249
KT 가온텔레콤_교대역점,기후동행쉼터,통신사 대리점,"서울 서초구 반포대로22길 104 1층 (서초동, 크라운빌딩)",09~19시,,,,,,,Y,"['폭염', '비', '한파', '눈']",실내,Y,Y,,37.49120479,127.0138418
KT (주)만리장성_고속터미널역점,기후동행쉼터,통신사 대리점,서울 서초구 신반포로 189 1층 (잠원동),09~19시,,,,,,,Y,"['폭염', '비', '한파', '눈']",실내,Y,Y,,37.5065454,127.0048681
KT 300텔레콤_대치역점,기후동행쉼터,통신사 대리점,서울 강남구 남부순환로 2927 대치클래시아 106호 (대치동),09~19시,,,,,,,Y,"['폭염', '비', '한파', '눈']",실내,Y,Y,,37.49367579,127.0603584
KT 올포원텔레콤_잠실새내역점,기후동행쉼터,통신사 대리점,"서울 송파구 석촌호수로 64 1층 (잠실동, 잠실빌딩)",09~19시,,,,,,,Y,"['폭염', '비', '한파', '눈']",실내,Y,Y,,37.5106112,127.0855677
KT (주)투유텔레콤_명일역점,기후동행쉼터,통신사 대리점,서울 강동구 양재대로 1624 1층 (명일동),09~19시,,,,,,,Y,"['폭염', '비', '한파', '눈']",실내,Y,Y,,37.5504094,127.144124
KT 대박통신_암사역점,기후동행쉼터,통신사 대리점,"서울 강동구 올림픽로 780 1층 (암사동, 예지빌딩)",09~19시,,,,,,,Y,"['폭염', '비', '한파', '눈']",실내,Y,Y,,37.55059189,127.1279894
KT 모바일세상_개롱역점,기후동행쉼터,통신사 대리점,"서울 송파구 오금로 404 1층 KT대리점 (가락동, 원일빌딩)",09~19시,,,,,,,Y,"['폭염', '비', '한파', '눈']",실내,Y,Y,,37.49759278,127.1351218
KT 더킹컴퍼니_강일리버파크점,기후동행쉼터,통신사 대리점,"서울 강동구 아리수로93길 9 106, 107호 (강일동, 골드프라자)",09~19시,,,,,,,Y,"['폭염', '비', '한파', '눈']",실내,Y,Y,,,
KT 300텔레콤_상일역점,기후동행쉼터,통신사 대리점,"서울 강동구 고덕로 385 4상가 (고덕동, 고덕그라시움)",09~19시,,,,,,,Y,"['폭염', '비', '한파', '눈']",실내,Y,Y,,,
KT L&C 컴퍼니_광장점,기후동행쉼터,통신사 대리점,"서울 광진구 아차산로 537-17 11호 (광장동, 광장힐스테이트)",09~19시,,,,,,,Y,"['폭염', '비', '한파', '눈']",실내,Y,Y,,37.54296206,127.099659
KT (주)세븐업_신내점,기후동행쉼터,통신사 대리점,서울 중랑구 신내로 71 (신내동),09~19시,,,,,,,Y,"['폭염', '비', '한파', '눈']",실내,Y,Y,,37.60554852,127.0951102
KT (주)세븐업 망우점,기후동행쉼터,통신사 대리점,"서울 중랑구 망우로 346 110호 (상봉동, 한일써너스빌)",09~19시,,,,,,,Y,"['폭염', '비', '한파', '눈']",실내,Y,Y,,37.59745248,127.0913696
KT (주)세븐업 면목역점,기후동행쉼터,통신사 대리점,서울 중랑구 겸재로 180 안민병원 1층 (면목동),09~19시,,,,,,,Y,"['폭염', '비', '한파', '눈']",실내,Y,Y,,37.58820081,127.0879513
KT (주)세븐업 우림시장점,기후동행쉼터,통신사 대리점,"서울 중랑구 망우로 410 1층 (망우동, 삼부빌딩)",09~19시,,,,,,,Y,"['폭염', '비', '한파', '눈']",실내,Y,Y,,37.59896701,127.0975957
KT 디액션(구리) 동부시장점,기후동행쉼터,통신사 대리점,서울 중랑구 망우로 212 (상봉동),09~19시,,,,,,,Y,"['폭염', '비', '한파', '눈']",실내,Y,Y,,37.59372837,127.0762006
KT 디액션(구리) 사가정6호점,기후동행쉼터,통신사 대리점,서울 중랑구 면목로 306 1층 KT (면목동),09~19시,,,,,,,Y,"['폭염', '비', '한파', '눈']",실내,Y,Y,,37.57943288,127.0877206
KT (주)단결_사가정역점,기후동행쉼터,통신사 대리점,서울 중랑구 면목로 337 1층 KT매장 (면목동),09~19시,,,,,,,Y,"['폭염', '비', '한파', '눈']",실내,Y,Y,,37.58206247,127.0885135
KT (주)애니킹_석계역점,기후동행쉼터,통신사 대리점,서울 노원구 화랑로 353 푸른치과의원건물 1층 (월계동),09~19시,,,,,,,Y,"['폭염', '비', '한파', '눈']",실내,Y,Y,,37.61547653,127.0670355
KT (주)피앤월드 미아사거리점,기후동행쉼터,통신사 대리점,서울 강북구 숭인로 75 1층 KT (미아동),09~19시,,,,,,,Y,"['폭염', '비', '한파', '눈']",실내,Y,Y,,37.61243094,127.0298998
KT (주)피앤월드 쌍문1호점,기후동행쉼터,통신사 대리점,"서울 도봉구 해등로 190 제116 117호 (쌍문동, 신원프라자)",09~19시,,,,,,,Y,"['폭염', '비', '한파', '눈']",실내,Y,Y,,37.65821667,127.0357594
KT (주)피앤월드 노원역점,기후동행쉼터,통신사 대리점,"서울 노원구 노해로 495 1층 KT (상계동, 삼성빌딩)",09~19시,,,,,,,Y,"['폭염', '비', '한파', '눈']",실내,Y,Y,,37.65511881,127.0630892
KT (주)피앤월드 쌍문역점,기후동행쉼터,통신사 대리점,서울 도봉구 도봉로 476 쉐르빌퍼스티 1층 104호 KT (창동),09~19시,,,,,,,Y,"['폭염', '비', '한파', '눈']",실내,Y,Y,,37.64787675,127.0347625
KT (주)피앤월드 중화역점,기후동행쉼터,통신사 대리점,서울 중랑구 동일로 795 1층 KT대리점 (중화동),09~19시,,,,,,,Y,"['폭염', '비', '한파', '눈']",실내,Y,Y,,37.60139431,127.0791446
KT (주)피앤월드 수유역점,기후동행쉼터,통신사 대리점,"서울 강북구 도봉로 334 1층 (번동, 영광빌딩)",09~19시,,,,,,,Y,"['폭염', '비', '한파', '눈']",실내,Y,Y,,37.63754905,127.0255424
KT (주)피앤월드 쌍문2호점,기후동행쉼터,통신사 대리점,서울 도봉구 해등로 198 1층 KT (쌍문동),09~19시,,,,,,,Y,"['폭염', '비', '한파', '눈']",실내,Y,Y,,37.65835477,127.0349108
KT (주)피앤월드 노원2호점,기후동행쉼터,통신사 대리점,서울 노원구 상계로 69 1층 KT (상계동),09~19시,,,,,,,Y,"['폭염', '비', '한파', '눈']",실내,Y,Y,,37.65645575,127.0626393
KT 아너스컨설팅_노원역점,기후동행쉼터,통신사 대리점,"서울 노원구 노해로83길 21 1층 103호 (상계동, 화용빌딩)",09~19시,,,,,,,Y,"['폭염', '비', '한파', '눈']",실내,Y,Y,,37.65618219,127.0640227
KT (주)영진랜드 수유역점,기후동행쉼터,통신사 대리점,서울 강북구 도봉로89길 1 1층 (수유동),09~19시,,,,,,,Y,"['폭염', '비', '한파', '눈']",실내,Y,Y,,37.63886815,127.0261113
KT (주)지오컴퍼니 수유시장점,기후동행쉼터,통신사 대리점,서울 강북구 도봉로 251 (수유동),09~19시,,,,,,,Y,"['폭염', '비', '한파', '눈']",실내,Y,Y,,37.63090758,127.0240003
KT (주)지오컴퍼니 수락산역점,기후동행쉼터,통신사 대리점,서울 노원구 동일로 1673 (상계동),09~19시,,,,,,,Y,"['폭염', '비', '한파', '눈']",실내,Y,Y,,37.67789724,127.0549421
KT (주)지오컴퍼니 광운대역점,기후동행쉼터,통신사 대리점,서울 노원구 광운로 66 1층 101 (월계동),09~19시,,,,,,,Y,"['폭염', '비', '한파', '눈']",실내,Y,Y,,37.62313062,127.0603124
KT (주)지오컴퍼니 마들역점,기후동행쉼터,통신사 대리점,서울 노원구 동일로 1538 상계12단지종합 상가 105호 (상계동),09~19시,,,,,,,Y,"['폭염', '비', '한파', '눈']",실내,Y,Y,,37.66623744,127.057865
KT (주)지오컴퍼니 미아사거리역점,기후동행쉼터,통신사 대리점,"서울 강북구 도봉로 53 1층 KT (미아동, 금성빌딩)",09~19시,,,,,,,Y,"['폭염', '비', '한파', '눈']",실내,Y,Y,,37.61383358,127.0296065
KT (주)지오컴퍼니 쌍문역점,기후동행쉼터,통신사 대리점,서울 도봉구 도봉로 475-1 (쌍문동),09~19시,,,,,,,Y,"['폭염', '비', '한파', '눈']",실내,Y,Y,,37.64833166,127.0341099
KT (주)지오컴퍼니 솔샘점,기후동행쉼터,통신사 대리점,"서울 강북구 솔샘로 233 1층 KT매장 (미아동, 동북프라자)",09~19시,,,,,,,Y,"['폭염', '비', '한파', '눈']",실내,Y,Y,,37.62042225,127.0190955
KT (주)지오컴퍼니 석계역점,기후동행쉼터,통신사 대리점,서울 노원구 화랑로 335 1층 102호 (월계동),09~19시,,,,,,,Y,"['폭염', '비', '한파', '눈']",실내,Y,Y,,37.61510196,127.0649828
KT (주)지오컴퍼니 방학점,기후동행쉼터,통신사 대리점,서울 도봉구 도봉로153길 29 (방학동),09~19시,,,,,,,Y,"['폭염', '비', '한파', '눈']",실내,Y,Y,,37.66988691,127.0417551
KT XCIX 은행사거리본점,기후동행쉼터,통신사 대리점,"서울 노원구 한글비석로 245 1층 (중계동, 두타빌)",09~19시,,,,,,,Y,"['폭염', '비', '한파', '눈']",실내,Y,Y,,37.6492608,127.0763611
KT 혜성아이앤씨 공릉점,기후동행쉼터,통신사 대리점,서울 노원구 공릉로 192 (공릉동),09~19시,,,,,,,Y,"['폭염', '비', '한파', '눈']",실내,Y,Y,,37.62704521,127.0791089
KT 진서정보통신_방학도깨비시장점,기후동행쉼터,통신사 대리점,서울 도봉구 도당로13길 9 (방학동),09~19시,,,,,,,Y,"['폭염', '비', '한파', '눈']",실내,Y,Y,,37.66513518,127.0355806
KT 디액션_노원역점,기후동행쉼터,통신사 대리점,"서울 노원구 동일로 1401 103호 (상계동, 상아빌딩)",09~19시,,,,,,,Y,"['폭염', '비', '한파', '눈']",실내,Y,Y,,37.65357505,127.0603809
KT 디액션_신창시장점,기후동행쉼터,통신사 대리점,서울 도봉구 덕릉로 239 1층 1호 (창동),09~19시,,,,,,,Y,"['폭염', '비', '한파', '눈']",실내,Y,Y,,37.63921172,127.0382405
KT (주)에이치커넥션 미아역1호점,기후동행쉼터,통신사 대리점,"서울 강북구 도봉로 187 101호 KT (미아동, 태근빌딩)",09~19시,,,,,,,Y,"['폭염', '비', '한파', '눈']",실내,Y,Y,,37.62542056,127.0261845
KT (주)에이치커넥션 미아역점,기후동행쉼터,통신사 대리점,서울 강북구 도봉로 178 1층 KT (미아동),09~19시,,,,,,,Y,"['폭염', '비', '한파', '눈']",실내,Y,Y,,37.62471865,127.0271564
KT (주)에이치커넥션 창동역점,기후동행쉼터,통신사 대리점,"서울 도봉구 마들로11길 71 1층 103호 104호 (창동, 신한빌딩)",09~19시,,,,,,,Y,"['폭염', '비', '한파', '눈']",실내,Y,Y,,37.65333205,127.0493377
KT (주)에이치커넥션 창동본점,기후동행쉼터,통신사 대리점,서울 도봉구 노해로63길 84 (창동),09~19시,,,,,,,Y,"['폭염', '비', '한파', '눈']",실내,Y,Y,,37.6527642,127.0465783
KT (주)에이치커넥션 먹골역점,기후동행쉼터,통신사 대리점,서울 중랑구 공릉로2길 8-4 칼튼테라스 105호 (묵동),09~19시,,,,,,,Y,"['폭염', '비', '한파', '눈']",실내,Y,Y,,37.61184252,127.0782455
KT (주)에이치커넥션 방학역점,기후동행쉼터,통신사 대리점,서울 도봉구 도봉로 689 (방학동),09~19시,,,,,,,Y,"['폭염', '비', '한파', '눈']",실내,Y,Y,,37.66598643,127.0426385
KT (주)세븐업_경기북부_노원역점,기후동행쉼터,통신사 대리점,"서울 노원구 노해로 488 102호 KT 매장 (상계동, 일서빌딩)",09~19시,,,,,,,Y,"['폭염', '비', '한파', '눈']",실내,Y,Y,,37.65432229,127.0621686
KT (주)세븐업_경기북부_공릉역점,기후동행쉼터,통신사 대리점,"서울 노원구 동일로 1077 1층 (공릉동, 스테이션빌딩)",09~19시,,,,,,,Y,"['폭염', '비', '한파', '눈']",실내,Y,Y,,37.62605156,127.0724374
KT (주)세븐업_경기북부_수유역점,기후동행쉼터,통신사 대리점,서울 강북구 도봉로 339 1층 (수유동),09~19시,,,,,,,Y,"['폭염', '비', '한파', '눈']",실내,Y,Y,,37.6382539,127.0254891
KT 도다텔_은평뉴타운점,기후동행쉼터,통신사 대리점,"서울 은평구 진관3로 21 101동 116호 (진관동, 은평뉴타운엘크루)",09~19시,,,,,,,Y,"['폭염', '비', '한파', '눈']",실내,Y,Y,,37.6396025,126.9190145
KT 하이팀_구산역점,기후동행쉼터,통신사 대리점,"서울 은평구 서오릉로 139 1층 KT (역촌동, 주영빌딩)",09~19시,,,,,,,Y,"['폭염', '비', '한파', '눈']",실내,Y,Y,,37.61083816,126.9174772
KT 하이팀_홍대센트럴점,기후동행쉼터,통신사 대리점,서울 마포구 홍익로 25 KT매장 (서교동),09~19시,,,,,,,Y,"['폭염', '비', '한파', '눈']",실내,Y,Y,,37.5544056,126.9219658
KT 하이팀_연신내센트럴점,기후동행쉼터,통신사 대리점,서울 은평구 통일로 855-13 1층 KT (갈현동),09~19시,,,,,,,Y,"['폭염', '비', '한파', '눈']",실내,Y,Y,,37.61915856,126.9198952
KT 하이팀_역촌역점,기후동행쉼터,통신사 대리점,서울 은평구 진흥로 105 1층 KT (역촌동),09~19시,,,,,,,Y,"['폭염', '비', '한파', '눈']",실내,Y,Y,,37.60630086,126.9225217
KT 하이팀_응암시장점,기후동행쉼터,통신사 대리점,서울 은평구 응암로 247 1층 KT대리점 (응암동),09~19시,,,,,,,Y,"['폭염', '비', '한파', '눈']",실내,Y,Y,,37.59422371,126.9178546
KT 하이팀_범서점,기후동행쉼터,통신사 대리점,"서울 은평구 통일로 842 1층 (불광동, 범서빌딩)",09~19시,,,,,,,Y,"['폭염', '비', '한파', '눈']",실내,Y,Y,,37.61869023,126.9220638
KT 하이팀_망원시장점,기후동행쉼터,통신사 대리점,서울 마포구 망원로 81 (망원동),09~19시,,,,,,,Y,"['폭염', '비', '한파', '눈']",실내,Y,Y,,37.55767445,126.9058253
KT 하이팀_연신내스퀘어점,기후동행쉼터,통신사 대리점,서울 은평구 연서로 216 아트캐슬주상복합 1층 106호 KT (대조동),09~19시,,,,,,,Y,"['폭염', '비', '한파', '눈']",실내,Y,Y,,37.61780002,126.9201202
KT 하이팀_응암역점,기후동행쉼터,통신사 대리점,"서울 은평구 은평로 82 126 1층 127호 (응암동, 해태드림타운)",09~19시,,,,,,,Y,"['폭염', '비', '한파', '눈']",실내,Y,Y,,,
KT 엠에이치플러스_연신내점,기후동행쉼터,통신사 대리점,서울 은평구 연서로 278 상가 (불광동),09~19시,,,,,,,Y,"['폭염', '비', '한파', '눈']",실내,Y,Y,,37.62075042,126.9253876
KT (주)에스비트_녹번역점,기후동행쉼터,통신사 대리점,"서울 은평구 은평로 240 상가 1층 318호 KT (응암동, 힐스테이트녹번역)",09~19시,,,,,,,Y,"['폭염', '비', '한파', '눈']",실내,Y,Y,,37.60042147,126.9349481
KT HJY연신내역점,기후동행쉼터,통신사 대리점,서울 은평구 연서로 228 상가주택 1층 (대조동),09~19시,,,,,,,Y,"['폭염', '비', '한파', '눈']",실내,Y,Y,,37.61849786,126.9206885
KT HJY합정역3호점,기후동행쉼터,통신사 대리점,"서울 마포구 양화로 45 B동 418호 (서교동, 메세나폴리스)",09~19시,,,,,,,Y,"['폭염', '비', '한파', '눈']",실내,Y,Y,,37.5515008,126.9139502
KT HJY홍제역2호점,기후동행쉼터,통신사 대리점,서울 서대문구 통일로 450 홍제역 12번 출구 사이 상가주택 (홍제동),09~19시,,,,,,,Y,"['폭염', '비', '한파', '눈']",실내,Y,Y,,37.58896925,126.9442924
KT HJY연신내역2호점 ,기후동행쉼터,통신사 대리점,서울 은평구 연서로 217 1층 KT매장 (갈현동),09~19시,,,,,,,Y,"['폭염', '비', '한파', '눈']",실내,Y,Y,,37.61810809,126.9196242
KT HJY홍제역점,기후동행쉼터,통신사 대리점,서울 서대문구 통일로 435-2 1층 (홍제동),09~19시,,,,,,,Y,"['폭염', '비', '한파', '눈']",실내,Y,Y,,37.58783978,126.9449106
KT HJY합정역2호점,기후동행쉼터,통신사 대리점,서울 마포구 양화로 52 (서교동),09~19시,,,,,,,Y,"['폭염', '비', '한파', '눈']",실내,Y,Y,,37.54967734,126.9146678
KT HJY불광역점,기후동행쉼터,통신사 대리점,서울 은평구 통일로 736 1층 불광역 8번출구 (불광동),09~19시,,,,,,,Y,"['폭염', '비', '한파', '눈']",실내,Y,Y,,37.61127002,126.9296076
KT HJY서대문역점,기후동행쉼터,통신사 대리점,서울 서대문구 통일로 137 1층 (냉천동),09~19시,,,,,,,Y,"['폭염', '비', '한파', '눈']",실내,Y,Y,,37.56670034,126.9654482
KT HJY불광역2호점,기후동행쉼터,통신사 대리점,서울 은평구 통일로 747 (대조동),09~19시,,,,,,,Y,"['폭염', '비', '한파', '눈']",실내,Y,Y,,37.61185628,126.9282331
KT HJY이대역점,기후동행쉼터,통신사 대리점,서울 서대문구 이화여대길 33 1층 KT (대현동),09~19시,,,,,,,Y,"['폭염', '비', '한파', '눈']",실내,Y,Y,,37.55846065,126.945623
KT (주)엠텔레콤_녹번점,기후동행쉼터,통신사 대리점,"서울 은평구 진흥로 188 1층 KT (녹번동, 상일빌라)",09~19시,,,,,,,Y,"['폭염', '비', '한파', '눈']",실내,Y,Y,,37.60827541,126.9303885
KT (주)브로_신촌연세로점,기후동행쉼터,통신사 대리점,서울 서대문구 연세로 20 1층 KT매장 (창천동),09~19시,,,,,,,Y,"['폭염', '비', '한파', '눈']",실내,Y,Y,,37.55747945,126.9370687
KT 햇빛모바일_신촌현대점 ,기후동행쉼터,통신사 대리점,"서울 마포구 신촌로 90 1층 KT (노고산동, 원준빌딩)",09~19시,,,,,,,Y,"['폭염', '비', '한파', '눈']",실내,Y,Y,,37.55531182,126.9355391
KT 햇빛모바일_불광역점,기후동행쉼터,통신사 대리점,서울 은평구 불광로 27 1층 KT (대조동),09~19시,,,,,,,Y,"['폭염', '비', '한파', '눈']",실내,Y,Y,,37.61077265,126.9288153
KT 모아폰_상암푸르지오시티점,기후동행쉼터,통신사 대리점,"서울 마포구 월드컵북로54길 25 1층 106호 (상암동, 푸르지오센터)",09~19시,,,,,,,Y,"['폭염', '비', '한파', '눈']",실내,Y,Y,,37.58209264,126.8889847
KT (주)DRC 동묘역점,기후동행쉼터,통신사 대리점,서울 종로구 종로 336 (창신동),09~19시,,,,,,,Y,"['폭염', '비', '한파', '눈']",실내,Y,Y,,37.57254695,127.0150271
KT (주)DRC 종로5가점,기후동행쉼터,통신사 대리점,서울 종로구 종로 213 상가 1층 (종로5가),09~19시,,,,,,,Y,"['폭염', '비', '한파', '눈']",실내,Y,Y,,37.57120577,127.0013682
KT (주)거인통신_길음뉴타운점,기후동행쉼터,통신사 대리점,"서울 성북구 길음로 33 상가 B동 지층 1호 올레매장 1층 (길음동, 길음뉴타운)",09~19시,,,,,,,Y,"['폭염', '비', '한파', '눈']",실내,Y,Y,,37.60508329,127.0220786
KT (주)거인통신_길음역점,기후동행쉼터,통신사 대리점,"서울 성북구 길음로 11 128호 상가 (길음동, 길음역롯데캐슬트윈골드)",09~19시,,,,,,,Y,"['폭염', '비', '한파', '눈']",실내,Y,Y,,37.6037856,127.0234374
KT (주)유엔아이_명동점,기후동행쉼터,통신사 대리점,"서울 중구 남대문로 66-1 1층 1호 (명동2가, 명덕빌딩)",09~19시,,,,,,,Y,"['폭염', '비', '한파', '눈']",실내,Y,Y,,37.56302322,126.9821886
KT (주)유엔아이_종각점,기후동행쉼터,통신사 대리점,서울 종로구 종로 72 (종로2가),09~19시,,,,,,,Y,"['폭염', '비', '한파', '눈']",실내,Y,Y,,37.56994979,126.9853878
KT 코어링크 혜화글로벌점,기후동행쉼터,통신사 대리점,서울 종로구 대명길 46 (명륜2가),09~19시,,,,,,,Y,"['폭염', '비', '한파', '눈']",실내,Y,Y,,37.58297114,126.9990397
KT 헤븐텔레콤_안암오거리점,기후동행쉼터,통신사 대리점,서울 동대문구 약령시로 2-1 (제기동),09~19시,,,,,,,Y,"['폭염', '비', '한파', '눈']",실내,Y,Y,,37.58236882,127.0302816
KT ㈜공일공정보 보문점,기후동행쉼터,통신사 대리점,서울 성북구 보문로 115 1층 (보문동2가),09~19시,,,,,,,Y,"['폭염', '비', '한파', '눈']",실내,Y,Y,,37.58540949,127.0191063
KT (주)일등통신_마포역점,기후동행쉼터,통신사 대리점,"서울 마포구 마포대로 53 113호 (도화동, 마포트라팰리스)",09~19시,,,,,,,Y,"['폭염', '비', '한파', '눈']",실내,Y,Y,,37.54143216,126.9470541
KT 새암 성신여대역점,기후동행쉼터,통신사 대리점,서울 성북구 아리랑로 16 (동선동4가),09~19시,,,,,,,Y,"['폭염', '비', '한파', '눈']",실내,Y,Y,,37.59421393,127.0165129
KT (주)브로_광화문 적선점,기후동행쉼터,통신사 대리점,"서울 종로구 자하문로2길 4 1층 KT 올레 매장 (적선동, 경복빌딩)",09~19시,,,,,,,Y,"['폭염', '비', '한파', '눈']",실내,Y,Y,,37.57637789,126.9728593
KT 언슈머 서울시청역점,기후동행쉼터,통신사 대리점,서울 중구 무교로 14 (무교동),09~19시,,,,,,,Y,"['폭염', '비', '한파', '눈']",실내,Y,Y,,37.56715229,126.9793744
KT 올웨이_중곡점,기후동행쉼터,통신사 대리점,"서울 광진구 천호대로 655 (중곡동, 덕수빌딩)",09~19시,,,,,,,Y,"['폭염', '비', '한파', '눈']",실내,Y,Y,,37.5525999,127.0897268
KT 올웨이_아차산점,기후동행쉼터,통신사 대리점,서울 광진구 용마산로 60 1층 KT (중곡동),09~19시,,,,,,,Y,"['폭염', '비', '한파', '눈']",실내,Y,Y,,37.55896087,127.0879011
KT 올웨이_광나루역점,기후동행쉼터,통신사 대리점,"서울 광진구 천호대로 808 (광장동, 광장12차현대홈타운)",09~19시,,,,,,,Y,"['폭염', '비', '한파', '눈']",실내,Y,Y,,37.54507352,127.1027396
KT 올웨이_한양대점,기후동행쉼터,통신사 대리점,서울 성동구 마조로 30 한양대병원후문 1층 KT (행당동),09~19시,,,,,,,Y,"['폭염', '비', '한파', '눈']",실내,Y,Y,,37.5603733,127.0414749
KT 올웨이_중곡2호점,기후동행쉼터,통신사 대리점,서울 광진구 면목로 173 1층 KT (중곡동),09~19시,,,,,,,Y,"['폭염', '비', '한파', '눈']",실내,Y,Y,,37.56860977,127.082601
KT 올웨이_상왕십리점,기후동행쉼터,통신사 대리점,"서울 성동구 왕십리로 410 L동 B1층 107호 (하왕십리동, 센트라스)",09~19시,,,,,,,Y,"['폭염', '비', '한파', '눈']",실내,Y,Y,,37.56660293,127.0240825
KT 올웨이_군자점,기후동행쉼터,통신사 대리점,서울 광진구 천호대로111길 10 (중곡동),09~19시,,,,,,,Y,"['폭염', '비', '한파', '눈']",실내,Y,Y,,37.55677948,127.0822561
KT (주)일등통신_수유점,기후동행쉼터,통신사 대리점,서울 강북구 도봉로 363 (수유동),09~19시,,,,,,,Y,"['폭염', '비', '한파', '눈']",실내,Y,Y,,37.6399397,127.0272526
KT (주)일등통신_성수점,기후동행쉼터,통신사 대리점,서울 성동구 아차산로7길 2 태화약국 (성수동2가),09~19시,,,,,,,Y,"['폭염', '비', '한파', '눈']",실내,Y,Y,,37.54536829,127.0542825
KT (주)일등통신_행당점,기후동행쉼터,통신사 대리점,서울 성동구 고산자로 207 무학산부인과 1층 KT (행당동),09~19시,,,,,,,Y,"['폭염', '비', '한파', '눈']",실내,Y,Y,,37.55869405,127.0337388
KT 탑클래스 모바일_청량리점,기후동행쉼터,통신사 대리점,서울 동대문구 홍릉로 6-1 1층 KT (청량리동),09~19시,,,,,,,Y,"['폭염', '비', '한파', '눈']",실내,Y,Y,,37.58092454,127.0451774
KT 탑클래스 모바일_구의역점,기후동행쉼터,통신사 대리점,"서울 광진구 아차산로 380 (자양동, 세화빌딩)",09~19시,,,,,,,Y,"['폭염', '비', '한파', '눈']",실내,Y,Y,,37.53661715,127.0850007
KT 탑클래스 모바일 장한평역점,기후동행쉼터,통신사 대리점,"서울 동대문구 장한로 3 1층 KT매장 (장안동, 승원빌딩)",09~19시,,,,,,,Y,"['폭염', '비', '한파', '눈']",실내,Y,Y,,37.56213555,127.0645738
KT 탑클래스 모바일_동대문역점,기후동행쉼터,통신사 대리점,"서울 종로구 창신길 1 1층 (창신동, 영화빌딩)",09~19시,,,,,,,Y,"['폭염', '비', '한파', '눈']",실내,Y,Y,,37.57185208,127.0101959
KT (주)거성크루_건대역점,기후동행쉼터,통신사 대리점,서울 광진구 동일로20길 72 무궁화공예문화교실 (자양동),09~19시,,,,,,,Y,"['폭염', '비', '한파', '눈']",실내,Y,Y,,37.540224,127.067455
KT (주)거성크루_한남오거리점,기후동행쉼터,통신사 대리점,"서울 용산구 대사관로 76 (한남동, 거북빌딩)",09~19시,,,,,,,Y,"['폭염', '비', '한파', '눈']",실내,Y,Y,,37.53306455,127.0065027
KT (주)거성크루_경희대삼거리점,기후동행쉼터,통신사 대리점,서울 동대문구 경희대로 1 1층 (회기동),09~19시,,,,,,,Y,"['폭염', '비', '한파', '눈']",실내,Y,Y,,37.59174748,127.0521029
KT (주)거성크루_세종대점,기후동행쉼터,통신사 대리점,서울 광진구 광나루로 366-1 (화양동),09~19시,,,,,,,Y,"['폭염', '비', '한파', '눈']",실내,Y,Y,,37.54780971,127.0705137
KT (주)거성크루_건대랜드마크점,기후동행쉼터,통신사 대리점,서울 광진구 능동로 91 1층 (자양동),09~19시,,,,,,,Y,"['폭염', '비', '한파', '눈']",실내,Y,Y,,37.53926933,127.0700404
KT (주)이지스컴_답십리점,기후동행쉼터,통신사 대리점,서울 동대문구 전농로 102 (답십리동),09~19시,,,,,,,Y,"['폭염', '비', '한파', '눈']",실내,Y,Y,,37.5739828,127.0578551
KT (주)리테일앤컴퍼니_전농점,기후동행쉼터,통신사 대리점,"서울 동대문구 사가정로 122 1층 102호 (전농동, 전농동하우스토리)",09~19시,,,,,,,Y,"['폭염', '비', '한파', '눈']",실내,Y,Y,,37.57721146,127.0585178
KT (주)리테일앤컴퍼니_신금호역점,기후동행쉼터,통신사 대리점,"서울 성동구 금호로 150-1 1층 (금호동1가, 백상빌딩)",09~19시,,,,,,,Y,"['폭염', '비', '한파', '눈']",실내,Y,Y,,37.5544205,127.02058
KT 뉴미닝_경희대점,기후동행쉼터,통신사 대리점,서울 동대문구 경희대로 18 1층 KT (회기동),09~19시,,,,,,,Y,"['폭염', '비', '한파', '눈']",실내,Y,Y,,37.59298583,127.052854
KT 뉴미닝_신설동역점,기후동행쉼터,통신사 대리점,"서울 동대문구 한빛로 1 1층 101호 KT (신설동, 대학빌딩)",09~19시,,,,,,,Y,"['폭염', '비', '한파', '눈']",실내,Y,Y,,37.5762521,127.0238206
KT 제이엠커뮤니케이션_답십리점,기후동행쉼터,통신사 대리점,서울 성동구 용답중앙15길 12-1 (용답동),09~19시,,,,,,,Y,"['폭염', '비', '한파', '눈']",실내,Y,Y,,37.56445243,127.0538565
KT 제이엠커뮤니케이션_금호역점,기후동행쉼터,통신사 대리점,서울 성동구 장터길 9 (금호동3가),09~19시,,,,,,,Y,"['폭염', '비', '한파', '눈']",실내,Y,Y,,37.54855621,127.0168828
KT 제이엠커뮤니케이션_휘경점,기후동행쉼터,통신사 대리점,"서울 동대문구 망우로 46 401동 1103호 KT 매장 (휘경동, 회기역하트리움)",09~19시,,,,,,,Y,"['폭염', '비', '한파', '눈']",실내,Y,Y,,37.58876557,127.0587918
KT 모바일라운지_구의역점,기후동행쉼터,통신사 대리점,"서울 광진구 아차산로 401 1층 (구의동, 영창빌딩)",09~19시,,,,,,,Y,"['폭염', '비', '한파', '눈']",실내,Y,Y,,37.53764201,127.087255
KT 모바일라운지_장안동사거리점,기후동행쉼터,통신사 대리점,"서울 동대문구 장한로25길 2 1층 KT 매장 (장안동, 상미빌딩)",09~19시,,,,,,,Y,"['폭염', '비', '한파', '눈']",실내,Y,Y,,37.57187659,127.0711221
KT 모바일라운지_건대점,기후동행쉼터,통신사 대리점,서울 광진구 능동로 123 1층 일부 (화양동),09~19시,,,,,,,Y,"['폭염', '비', '한파', '눈']",실내,Y,Y,,37.54202734,127.071313
KT 모바일라운지_건대스타시티점,기후동행쉼터,통신사 대리점,"서울 광진구 아차산로 272 104호, B1층 (자양동, 더샵스타시티)",09~19시,,,,,,,Y,"['폭염', '비', '한파', '눈']",실내,Y,Y,,37.53855827,127.0729962
KT 모바일라운지_화양점,기후동행쉼터,통신사 대리점,서울 광진구 군자로 76 (군자동),09~19시,,,,,,,Y,"['폭염', '비', '한파', '눈']",실내,Y,Y,,37.54995393,127.0710854
KT olleh plaza 혜화점,기후동행쉼터,통신사 대리점,서울 종로구 대학로 65 kt 혜화지점 1층 kt 플라자 혜화점,09~19시,,,,,,,Y,"['폭염', '비', '한파', '눈']",실내,Y,Y,,37.57715324,127.0015492
KT olleh plaza 용산점,기후동행쉼터,통신사 대리점,서울 용산구 한강대로 297 우신빌딩 1층 kt플라자 용산점,09~19시,,,,,,,Y,"['폭염', '비', '한파', '눈']",실내,Y,Y,,37.54475839,126.9716837
KT olleh plaza 은평점,기후동행쉼터,통신사 대리점,서울 은평구 통일로71길 16 kt 은평지점 1층 kt 플라자 은평점,09~19시,,,,,,,Y,"['폭염', '비', '한파', '눈']",실내,Y,Y,,37.61344879,126.9260762
KT olleh plaza 신촌점,기후동행쉼터,통신사 대리점,서울시 마포구 양화로 175 마젤란21 오피스텔 1층,09~19시,,,,,,,Y,"['폭염', '비', '한파', '눈']",실내,Y,Y,,37.55775446,126.9243653
KT olleh plaza 답십리점,기후동행쉼터,통신사 대리점,서울시 동대문구 천호대로 281 동부시장건물 1층 kt플라자 답십리점,09~19시,,,,,,,Y,"['폭염', '비', '한파', '눈']",실내,Y,Y,,37.56757575,127.0522092
KT olleh plaza 중랑점,기후동행쉼터,통신사 대리점,서울 중랑구 봉우재로 59(면목동),09~19시,,,,,,,Y,"['폭염', '비', '한파', '눈']",실내,Y,Y,,37.59133938,127.0796282
KT olleh plaza 노원점,기후동행쉼터,통신사 대리점,서울 노원구 노해로 502 kt 노원지점 1층 kt 플라자 노원점,09~19시,,,,,,,Y,"['폭염', '비', '한파', '눈']",실내,Y,Y,,37.65445005,127.0636923
KT olleh plaza 도봉점,기후동행쉼터,통신사 대리점,서울 도봉구 도봉로110길 25 kt 도봉지점 1층 kt 플라자 도봉점,09~19시,,,,,,,Y,"['폭염', '비', '한파', '눈']",실내,Y,Y,,37.64638879,127.0350095
KT olleh plaza 강북점,기후동행쉼터,통신사 대리점,서울 강북구 솔매로50길 43 kt 강북지점 1층 kt 플라자 강북점,09~19시,,,,,,,Y,"['폭염', '비', '한파', '눈']",실내,Y,Y,,37.62465418,127.0285018
KT olleh plaza 양재점,기후동행쉼터,통신사 대리점,서울 강남구 남부순환로 2653 kt 양재지점 1층 kt 플라자 양재점,09~19시,,,,,,,Y,"['폭염', '비', '한파', '눈']",실내,Y,Y,,37.48586782,127.0403271
KT olleh plaza 강남점,기후동행쉼터,통신사 대리점,서울 강남구 언주로 517 kt 강남지점 1층 kt 플라자 강남점,09~19시,,,,,,,Y,"['폭염', '비', '한파', '눈']",실내,Y,Y,,37.50428154,127.0415425
KT olleh plaza 서초점,기후동행쉼터,통신사 대리점,서울 서초구 효령로 174 ktds빌딩 1층 kt 플라자 서초점,09~19시,,,,,,,Y,"['폭염', '비', '한파', '눈']",실내,Y,Y,,37.48199861,127.0031157
KT olleh plaza 송파점,기후동행쉼터,통신사 대리점,서울 송파구 오금로 58 잠실아이스페이스 1층 101호 kt 플라자 송파점,09~19시,,,,,,,Y,"['폭염', '비', '한파', '눈']",실내,Y,Y,,37.51675255,127.1054909
KT olleh plaza 강동점,기후동행쉼터,통신사 대리점,"서울 강동구 양재대로 1462, 남양빌딩 1~2층 kt 플라자 강동점",09~19시,,,,,,,Y,"['폭염', '비', '한파', '눈']",실내,Y,Y,,37.53622894,127.139777
KT olleh plaza 강서점,기후동행쉼터,통신사 대리점,서울 강서구 강서로5길 64 kt 강서지점 1층 kt 플라자 강서점,09~19시,,,,,,,Y,"['폭염', '비', '한파', '눈']",실내,Y,Y,,37.52954504,126.848523
KT olleh plaza 구로점,기후동행쉼터,통신사 대리점,서울 관악구 조원중앙로1길 26 kt 구로지점 1층 kt 플라자 구로점,09~19시,,,,,,,Y,"['폭염', '비', '한파', '눈']",실내,Y,Y,,37.480666,126.9035795
KT olleh plaza 개봉점,기후동행쉼터,통신사 대리점,서울 구로구 개봉로6길 12-5 kt 개봉지점 1층 kt 플라자 개봉점,09~19시,,,,,,,Y,"['폭염', '비', '한파', '눈']",실내,Y,Y,,37.48661193,126.8576512
KT olleh plaza 관악점,기후동행쉼터,통신사 대리점,서울 관악구 청룡1길 34 kt 관악지점 1층 kt 플라자 관악점,09~19시,,,,,,,Y,"['폭염', '비', '한파', '눈']",실내,Y,Y,,37.48068425,126.9483848
KT KT플라자 사당점,기후동행쉼터,통신사 대리점,"서울 서초구 동작대로 22 1층 (방배동, 삼미빌딩)",09~19시,,,,,,,Y,"['폭염', '비', '한파', '눈']",실내,Y,Y,,37.47839697,126.982203
KT M&S성내직영점,기후동행쉼터,통신사 대리점,서울 강동구 양재대로 1339 (성내동),09~19시,,,,,,,Y,"['폭염', '비', '한파', '눈']",실내,Y,Y,,37.52595227,127.1350097
KT M&S역삼직영점,기후동행쉼터,통신사 대리점,서울 강남구 테헤란로 139-1 1층 (역삼동),09~19시,,,,,,,Y,"['폭염', '비', '한파', '눈']",실내,Y,Y,,37.50043968,127.0344714
KT M&S강남대로직영점,기후동행쉼터,통신사 대리점,"서울 서초구 강남대로 359 1층 101호 (서초동, 대우도씨에빛2)",09~19시,,,,,,,Y,"['폭염', '비', '한파', '눈']",실내,Y,Y,,37.49479896,127.0286098
KT M&S교대역직영점,기후동행쉼터,통신사 대리점,"서울 서초구 서초대로 286 1층 103호 (서초동, 서초프라자)",09~19시,,,,,,,Y,"['폭염', '비', '한파', '눈']",실내,Y,Y,,37.49317412,127.0130368
KT M&S가로수길직영점,기후동행쉼터,통신사 대리점,"서울 강남구 도산대로 127 1층 (신사동, 경서빌딩)",09~19시,,,,,,,Y,"['폭염', '비', '한파', '눈']",실내,Y,Y,,37.51762512,127.0223273
KT M&S천호직영점,기후동행쉼터,통신사 대리점,"서울 강동구 올림픽로 660 1층 (천호동, 천호엘크루주상복합)",09~19시,,,,,,,Y,"['폭염', '비', '한파', '눈']",실내,Y,Y,,37.54016964,127.1245704
KT M&S신논현직영점,기후동행쉼터,통신사 대리점,"서울 서초구 강남대로 495 (반포동, 동일빌딩)",09~19시,,,,,,,Y,"['폭염', '비', '한파', '눈']",실내,Y,Y,,37.50630338,127.0231948
KT M&S양재시민의숲직영점,기후동행쉼터,통신사 대리점,"서울 서초구 마방로2길 94 1층 (양재동, OSL빌딩)",09~19시,,,,,,,Y,"['폭염', '비', '한파', '눈']",실내,Y,Y,,37.46947565,127.0398141
KT M&S선릉사거리애드샵직영점,기후동행쉼터,통신사 대리점,"서울 강남구 선릉로 515 1층 (역삼동, 동인빌딩)",09~19시,,,,,,,Y,"['폭염', '비', '한파', '눈']",실내,Y,Y,,37.50544679,127.048235
KT M&S길동사거리직영점,기후동행쉼터,통신사 대리점,서울 강동구 천호대로 1128 (성내동),09~19시,,,,,,,Y,"['폭염', '비', '한파', '눈']",실내,Y,Y,,37.53416343,127.1365197
KT M&S강남역직영점,기후동행쉼터,통신사 대리점,"서울 강남구 테헤란로 120 강남역 1번출구 국기원사거리 (역삼동, 상경빌딩)",09~19시,,,,,,,Y,"['폭염', '비', '한파', '눈']",실내,Y,Y,,37.49858857,127.0308569
KT M&S선릉직영점,기후동행쉼터,통신사 대리점,서울 강남구 선릉로 424 해창 상가 1층 2호 선릉역 2번출구 진선여고 사거리 (대치동),09~19시,,,,,,,Y,"['폭염', '비', '한파', '눈']",실내,Y,Y,,37.50291015,127.050065
KT M&S신천역직영점,기후동행쉼터,통신사 대리점,서울 송파구 올림픽로 124 (잠실동),09~19시,,,,,,,Y,"['폭염', '비', '한파', '눈']",실내,Y,Y,,37.51139373,127.084435
KT M&S삼전직영점,기후동행쉼터,통신사 대리점,서울 송파구 백제고분로 204 (삼전동),09~19시,,,,,,,Y,"['폭염', '비', '한파', '눈']",실내,Y,Y,,37.50374869,127.0892345
KT KT플라자 선릉역점,기후동행쉼터,통신사 대리점,"서울 강남구 테헤란로 421 1층 101호 (삼성동, 암천빌딩)",09~19시,,,,,,,Y,"['폭염', '비', '한파', '눈']",실내,Y,Y,,37.50598917,127.0525322
KT M&S건대입구역직영점,기후동행쉼터,통신사 대리점,서울 광진구 능동로 109 1층 (화양동),09~19시,,,,,,,Y,"['폭염', '비', '한파', '눈']",실내,Y,Y,,37.54087789,127.0707809
KT M&S삼양로직영점,기후동행쉼터,통신사 대리점,서울 강북구 솔샘로 260 상가 (미아동),09~19시,,,,,,,Y,"['폭염', '비', '한파', '눈']",실내,Y,Y,,37.6192075,127.0214217
KT M&S면목역직영점,기후동행쉼터,통신사 대리점,서울 중랑구 면목로 422 1층 KT매장 (면목동),09~19시,,,,,,,Y,"['폭염', '비', '한파', '눈']",실내,Y,Y,,37.58961005,127.0877044
KT M&S중계아울렛직영점,기후동행쉼터,통신사 대리점,"서울 노원구 동일로204가길 34 1층 (중계동, 씨앤미복합빌딩)",09~19시,,,,,,,Y,"['폭염', '비', '한파', '눈']",실내,Y,Y,,37.64074954,127.0681722
KT M&S정릉직영점,기후동행쉼터,통신사 대리점,"서울 성북구 보국문로 43 (정릉동, 야원빌딩)",09~19시,,,,,,,Y,"['폭염', '비', '한파', '눈']",실내,Y,Y,,37.60817291,127.009889
KT M&S신용산역직영점,기후동행쉼터,통신사 대리점,"서울 용산구 한강대로 95 105호 (한강로2가, 래미안용산)",09~19시,,,,,,,Y,"['폭염', '비', '한파', '눈']",실내,Y,Y,,37.52881739,126.9666538
KT M&S노원역직영점,기후동행쉼터,통신사 대리점,"서울 노원구 동일로 1382 1층 KT매장 (상계동, 올림피아빌딩)",09~19시,,,,,,,Y,"['폭염', '비', '한파', '눈']",실내,Y,Y,,37.65199466,127.0615539
KT M&S연신내역직영점,기후동행쉼터,통신사 대리점,"서울 은평구 통일로 842 1층 KT프라자 (불광동, 뱅뱅옆)",09~19시,,,,,,,Y,"['폭염', '비', '한파', '눈']",실내,Y,Y,,37.61869023,126.9220638
KT M&S상봉역직영점,기후동행쉼터,통신사 대리점,서울 중랑구 망우로 306 1층 (상봉동),09~19시,,,,,,,Y,"['폭염', '비', '한파', '눈']",실내,Y,Y,,37.59637122,127.0864374
KT M&S먹골역직영점,기후동행쉼터,통신사 대리점,서울 중랑구 동일로 890 1층 103호 KT 엠엔에스 (묵동),09~19시,,,,,,,Y,"['폭염', '비', '한파', '눈']",실내,Y,Y,,37.60991516,127.0781892
KT M&S구파발직영점,기후동행쉼터,통신사 대리점,"서울 은평구 진관2로 19 1층 103호 (진관동, 휴먼프라자I)",09~19시,,,,,,,Y,"['폭염', '비', '한파', '눈']",실내,Y,Y,,37.63485353,126.9195847
KT M&S홍대애드샵플러스직영점,기후동행쉼터,통신사 대리점,서울 마포구 양화로18길 3 (동교동),09~19시,,,,,,,Y,"['폭염', '비', '한파', '눈']",실내,Y,Y,,37.55703127,126.9245703
KT M&S상암애드샵직영점,기후동행쉼터,통신사 대리점,"서울 마포구 월드컵북로 396 1층 104호 (상암동, 누리꿈스퀘어)",09~19시,,,,,,,Y,"['폭염', '비', '한파', '눈']",실내,Y,Y,,37.57942834,126.889783
KT M&S신촌연세대직영점,기후동행쉼터,통신사 대리점,"서울 서대문구 연세로 29 1층 KT (창천동, 혜인빌딩)",09~19시,,,,,,,Y,"['폭염', '비', '한파', '눈']",실내,Y,Y,,37.55822231,126.9367087
KT M&S광화문본점직영점,기후동행쉼터,통신사 대리점,"서울 종로구 종로 19 104호 (종로1가, 르메이에르종로타운)",09~19시,,,,,,,Y,"['폭염', '비', '한파', '눈']",실내,Y,Y,,37.57084449,126.9799237
KT M&S광화문중앙직영점,기후동행쉼터,통신사 대리점,서울 종로구 새문안로9길 25 1층 KT 매장 (당주동),09~19시,,,,,,,Y,"['폭염', '비', '한파', '눈']",실내,Y,Y,,37.57135055,126.9754817
KT M&S독립문역직영점,기후동행쉼터,통신사 대리점,"서울 종로구 송월길 99 상가동 1층 2128호 (홍파동, 경희궁자이2단지)",09~19시,,,,,,,Y,"['폭염', '비', '한파', '눈']",실내,Y,Y,,37.5708611,126.9623523
KT M&S수유직영점,기후동행쉼터,통신사 대리점,서울 강북구 도봉로 342 1층 KT (번동),09~19시,,,,,,,Y,"['폭염', '비', '한파', '눈']",실내,Y,Y,,37.63803455,127.0261287
KT M&S신당직영점,기후동행쉼터,통신사 대리점,서울 중구 퇴계로 434 몽마 1층 (신당동),09~19시,,,,,,,Y,"['폭염', '비', '한파', '눈']",실내,Y,Y,,37.56550839,127.0197729
KT M&S을지로명동본점직영점,기후동행쉼터,통신사 대리점,서울 중구 명동7길 25 KT매장 (을지로2가),09~19시,,,,,,,Y,"['폭염', '비', '한파', '눈']",실내,Y,Y,,37.56491424,126.9841922
KT M&S신촌역직영점,기후동행쉼터,통신사 대리점,서울 마포구 백범로 3 신촌역 6번출구 서강대방향 M 30 (노고산동),09~19시,,,,,,,Y,"['폭염', '비', '한파', '눈']",실내,Y,Y,,37.5544028,126.9372048
KT M&S응암역직영점,기후동행쉼터,통신사 대리점,"서울 은평구 은평로 63 KT프라자 응암역점 (역촌동, 비앤케이빌딩)",09~19시,,,,,,,Y,"['폭염', '비', '한파', '눈']",실내,Y,Y,,37.59907693,126.9148463
KT M&S자양번영로직영점,기후동행쉼터,통신사 대리점,"서울 광진구 뚝섬로 590 1층 KT (자양동, 아주빌딩)",09~19시,,,,,,,Y,"['폭염', '비', '한파', '눈']",실내,Y,Y,,37.53313524,127.0753012
KT M&S명지대사거리직영점,기후동행쉼터,통신사 대리점,서울 서대문구 증가로 144 1층 (남가좌동),09~19시,,,,,,,Y,"['폭염', '비', '한파', '눈']",실내,Y,Y,,37.57775873,126.9216194
KT M&S금호동직영점,기후동행쉼터,통신사 대리점,"서울 성동구 독서당로 302 1층 KT (금호동4가, 대도프라자)",09~19시,,,,,,,Y,"['폭염', '비', '한파', '눈']",실내,Y,Y,,37.54761108,127.0227309
KT M&S종로본점직영점,기후동행쉼터,통신사 대리점,"서울 종로구 삼일대로 393 (관철동, 규당빌딩)",09~19시,,,,,,,Y,"['폭염', '비', '한파', '눈']",실내,Y,Y,,37.56967441,126.9873907
KT M&S상계역직영점,기후동행쉼터,통신사 대리점,서울 노원구 한글비석로20길 23-16 (중계동),09~19시,,,,,,,Y,"['폭염', '비', '한파', '눈']",실내,Y,Y,,37.66047681,127.0737351
KT M&S대학로본점직영점,기후동행쉼터,통신사 대리점,서울 종로구 대명길 6 (명륜2가),09~19시,,,,,,,Y,"['폭염', '비', '한파', '눈']",실내,Y,Y,,37.58376194,127.001075
KT M&S성신여대직영점,기후동행쉼터,통신사 대리점,서울 성북구 동소문로 98 1층 (동소문동5가),09~19시,,,,,,,Y,"['폭염', '비', '한파', '눈']",실내,Y,Y,,37.59225207,127.0161725
KT M&S외대역직영점,기후동행쉼터,통신사 대리점,서울 동대문구 휘경로 7 1층 (이문동),09~19시,,,,,,,Y,"['폭염', '비', '한파', '눈']",실내,Y,Y,,37.5962832,127.0610538
KT M&S한성대직영점,기후동행쉼터,통신사 대리점,"서울 성북구 동소문로 16 1층 KT (동소문동2가, 일신빌딩)",09~19시,,,,,,,Y,"['폭염', '비', '한파', '눈']",실내,Y,Y,,37.58902195,127.0079752
KT M&S신길직영점,기후동행쉼터,통신사 대리점,"서울 영등포구 도신로60길 2 (신길동, 미주메디컬빌딩)",09~19시,,,,,,,Y,"['폭염', '비', '한파', '눈']",실내,Y,Y,,37.51178449,126.9168303
KT M&S영등포구청역직영점,기후동행쉼터,통신사 대리점,서울 영등포구 당산로 132 영등포구청 역 (당산동3가),09~19시,,,,,,,Y,"['폭염', '비', '한파', '눈']",실내,Y,Y,,37.52629844,126.8970055
KT M&S이수역직영점,기후동행쉼터,통신사 대리점,서울 동작구 동작대로 127 1층 KT매장 (사당동),09~19시,,,,,,,Y,"['폭염', '비', '한파', '눈']",실내,Y,Y,,37.48796042,126.981957
KT M&S까치산역직영점,기후동행쉼터,통신사 대리점,서울 강서구 강서로 47 (화곡동),09~19시,,,,,,,Y,"['폭염', '비', '한파', '눈']",실내,Y,Y,,37.53196051,126.8463393
KT M&S신정네거리역직영점,기후동행쉼터,통신사 대리점,서울 양천구 중앙로 274 (신정동),09~19시,,,,,,,Y,"['폭염', '비', '한파', '눈']",실내,Y,Y,,37.52075643,126.85311
KT M&S가양역직영점,기후동행쉼터,통신사 대리점,서울 강서구 양천로 460 (등촌동),09~19시,,,,,,,Y,"['폭염', '비', '한파', '눈']",실내,Y,Y,,37.56258508,126.8516998
KT M&S우장산역직영점,기후동행쉼터,통신사 대리점,"서울 강서구 강서로 251 1층 (내발산동, 세란빌딩)",09~19시,,,,,,,Y,"['폭염', '비', '한파', '눈']",실내,Y,Y,,37.54812803,126.8360224
KT M&S대림역직영점,기후동행쉼터,통신사 대리점,서울 영등포구 도림로 135 (대림동),09~19시,,,,,,,Y,"['폭염', '비', '한파', '눈']",실내,Y,Y,,37.49323199,126.8968596
KT M&S마곡나루역직영점,기후동행쉼터,통신사 대리점,"서울 강서구 마곡중앙5로1길 20 107호 108호 (마곡동, 마곡나루역보타닉비즈타워)",09~19시,,,,,,,Y,"['폭염', '비', '한파', '눈']",실내,Y,Y,,37.56866646,126.826712
KT M&S관악구청직영점,기후동행쉼터,통신사 대리점,"서울 관악구 쑥고개로 139 (봉천동, 승원빌딩)",09~19시,,,,,,,Y,"['폭염', '비', '한파', '눈']",실내,Y,Y,,37.47887448,126.9520291
KT M&S당산직영점,기후동행쉼터,통신사 대리점,서울 영등포구 양평로 52 당산역 (당산동6가),09~19시,,,,,,,Y,"['폭염', '비', '한파', '눈']",실내,Y,Y,,37.53465583,126.9008753
KT M&S목동역직영점,기후동행쉼터,통신사 대리점,서울 양천구 목동로 201 1층 KT매장 (신정동),09~19시,,,,,,,Y,"['폭염', '비', '한파', '눈']",실내,Y,Y,,37.52645931,126.8639319
KT M&S오목교직영점,기후동행쉼터,통신사 대리점,"서울 양천구 목동동로 293 (목동, 현대41타워)",09~19시,,,,,,,Y,"['폭염', '비', '한파', '눈']",실내,Y,Y,,37.52817831,126.875772
KT M&S서울대직영점,기후동행쉼터,통신사 대리점,서울 관악구 관악로 198 1층 KT매장 (봉천동),09~19시,,,,,,,Y,"['폭염', '비', '한파', '눈']",실내,Y,Y,,37.48253795,126.9539758
KT M&S노량진직영점,기후동행쉼터,통신사 대리점,서울 동작구 노량진로 162 1층 KT (노량진동),09~19시,,,,,,,Y,"['폭염', '비', '한파', '눈']",실내,Y,Y,,37.51340714,126.9439576
KT M&S화곡역직영점,기후동행쉼터,통신사 대리점,"서울 강서구 화곡로 164 1층 KT매장 (화곡동, 화곡빌딩)",09~19시,,,,,,,Y,"['폭염', '비', '한파', '눈']",실내,Y,Y,,37.54125431,126.83989
KT M&S여의도역직영점,기후동행쉼터,통신사 대리점,"서울 영등포구 국제금융로2길 37 101호 여의도역 (여의도동, 에스트레뉴빌딩)",09~19시,,,,,,,Y,"['폭염', '비', '한파', '눈']",실내,Y,Y,,37.52294518,126.9242856
KT M&S신림직영점,기후동행쉼터,통신사 대리점,서울 관악구 신림로 360-1 1층 KT매장 (신림동),09~19시,,,,,,,Y,"['폭염', '비', '한파', '눈']",실내,Y,Y,,37.48649372,126.9294576
KT M&S발산역직영점 ,기후동행쉼터,통신사 대리점,서울 강서구 강서로 391 문영비즈웍스제1층 제105호 (마곡동),09~19시,,,,,,,Y,"['폭염', '비', '한파', '눈']",실내,Y,Y,,37.56054483,126.8384276
KT M&S당곡역직영점,기후동행쉼터,통신사 대리점,"서울 관악구 봉천로 212 (신림동, 희성빌딩)",09~19시,,,,,,,Y,"['폭염', '비', '한파', '눈']",실내,Y,Y,,37.48963706,126.9250607
KT KT플라자 신길뉴타운점,기후동행쉼터,통신사 대리점,"서울 영등포구 신길로 28길 9, 20호",09~19시,,,,,,,Y,"['폭염', '비', '한파', '눈']",실내,Y,Y,,37.50331925,126.9109858
KT M&S구로디지털직영점,기후동행쉼터,통신사 대리점,서울특별시 구로구 디지털로34길 55 (구로동) 코오롱싸이언스밸리 112호,09~19시,,,,,,,Y,"['폭염', '비', '한파', '눈']",실내,Y,Y,,37.48428564,126.8992821
스마트셸터,스마트쉼터,,서울 마포구 동교동 155-55,05:00:00 ~ 익일 01:00:00,,,,14-015 홍대입구역(중) 버스정류소,,,Y,"['폭염', '비', '눈', '한파', '미세먼지']",실내,Y,Y,Y,37.55637207,126.9231257
스마트셸터,스마트쉼터,,서울 마포구 동교동 155-55,05:00:00 ~ 익일 01:00:00,,,,14-016 홍대입구역(중) 버스정류소,,,Y,"['폭염', '비', '눈', '한파', '미세먼지']",실내,Y,Y,Y,37.55637207,126.9231257
스마트셸터,스마트쉼터,,서울 마포구 합정동 402,05:00:00 ~ 익일 01:00:00,,,,14-011 합정역(중) 버스정류소,,,Y,"['폭염', '비', '눈', '한파', '미세먼지']",실내,Y,Y,Y,37.54984665,126.9141781
스마트셸터,스마트쉼터,,서울 마포구 합정동 402,05:00:00 ~ 익일 01:00:00,,,,14-012 합정역(중) 버스정류소,,,Y,"['폭염', '비', '눈', '한파', '미세먼지']",실내,Y,Y,Y,37.54984665,126.9141781
스마트셸터,스마트쉼터,,서울 중구 남대문로5가 84-15,05:00:00 ~ 익일 01:00:00,,,,02-008 숭례문(중) 버스정류소,,,Y,"['폭염', '비', '눈', '한파', '미세먼지']",실내,Y,Y,Y,37.557467,126.9729842
스마트셸터,스마트쉼터,,서울 광진구 화양동 4-15,05:00:00 ~ 익일 01:00:00,,,,05-232 건대입구역사거리.건대병원 버스정류소,,,Y,"['폭염', '비', '눈', '한파', '미세먼지']",실내,Y,Y,Y,37.54073881,127.071187
스마트셸터,스마트쉼터,,서울 강서구 마곡동 730-314,05:00:00 ~ 익일 01:00:00,,,,16-023 강서세무서(중) 버스정류소,,,Y,"['폭염', '비', '눈', '한파', '미세먼지']",실내,Y,Y,Y,37.56015346,126.821424
스마트셸터,스마트쉼터,,서울 강서구 마곡동 730-314,05:00:00 ~ 익일 01:00:00,,,,16-024 강서세무서(중) 버스정류소,,,Y,"['폭염', '비', '눈', '한파', '미세먼지']",실내,Y,Y,Y,37.56015346,126.821424
스마트셸터,스마트쉼터,,서울 은평구 진관동 산 100-25,05:00:00 ~ 익일 01:00:00,,,,12-111 구파발역2번출구 버스정류소,,,Y,"['폭염', '비', '눈', '한파', '미세먼지']",실내,Y,Y,Y,37.63674993,126.9189395
스마트셸터,스마트쉼터,,서울 서대문구 현저동 900,05:00:00 ~ 익일 01:00:00,,,,13-270 독립문공원.극동아파트 버스정류소,,,Y,"['폭염', '비', '눈', '한파', '미세먼지']",실내,Y,Y,Y,37.57185357,126.9594508
스마트셸터,스마트쉼터,,서울 강동구 성내동 5-19,05:00:00 ~ 익일 01:00:00,,,,25-013 천호역(중) 버스정류소,,,Y,"['폭염', '비', '눈', '한파', '미세먼지']",실내,Y,Y,Y,37.53743591,127.1273599
스마트셸터,스마트쉼터,,서울 강동구 성내동 62-1,05:00:00 ~ 익일 01:00:00,,,,25-014 천호역(중) 버스정류소,,,Y,"['폭염', '비', '눈', '한파', '미세먼지']",실내,Y,Y,Y,37.5348353,127.1221279
스마트셸터,스마트쉼터,,서울 송파구 방이동 95-3,05:00:00 ~ 익일 01:00:00,,,,24-136 송파구청.방이맛골 버스정류소,,,Y,"['폭염', '비', '눈', '한파', '미세먼지']",실내,Y,Y,Y,37.51358608,127.1075626
중구형 스마트쉼터,스마트쉼터,,신당동 369-2,05:00:00 ~ 익일 01:00:00,,,,약수역7번출구·약수동주민센터 버스정류장(02-196),,,Y,"['폭염', '비', '눈', '한파', '미세먼지']",실내,Y,Y,Y,37.55506287,127.0105991
중구형 스마트쉼터,스마트쉼터,,남대문로2가 8-2,05:00:00 ~ 익일 01:00:00,,,,명동입구 버스정류장(02-253),,,Y,"['폭염', '비', '눈', '한파', '미세먼지']",실내,Y,Y,Y,37.56466976,126.9825991
중구형 스마트쉼터,스마트쉼터,,신당동 369-2,05:00:00 ~ 익일 01:00:00,,,,"약수역8번출구·신당사회복지관
버스정류장(02-195)",,,Y,"['폭염', '비', '눈', '한파', '미세먼지']",실내,Y,Y,Y,37.55506287,127.0105991
중구형 스마트쉼터,스마트쉼터,,만리동2가 33-1,05:00:00 ~ 익일 01:00:00,,,,"손기정체육공원입구
버스정류장(02-102)",,,Y,"['폭염', '비', '눈', '한파', '미세먼지']",실내,Y,Y,Y,37.55430189,126.966009
중구형 스마트쉼터,스마트쉼터,,신당동 산24-110,05:00:00 ~ 익일 01:00:00,,,,"버티고개
버스정류장(02-237)",,,Y,"['폭염', '비', '눈', '한파', '미세먼지']",실내,Y,Y,Y,37.54772032,127.0062349
중구형 스마트쉼터,스마트쉼터,,신당동 433,05:00:00 ~ 익일 01:00:00,,,,"신당파인힐하나유보라
버스정류장(02-252)",,,Y,"['폭염', '비', '눈', '한파', '미세먼지']",실내,Y,Y,Y,37.56498302,127.0250064
중구형 스마트쉼터,스마트쉼터,,황학동 761,05:00:00 ~ 익일 01:00:00,,,,"황학동롯데캐슬
버스정류장(02-277)",,,Y,"['폭염', '비', '눈', '한파', '미세먼지']",실내,Y,Y,Y,37.57078695,127.0233354
중구형 스마트쉼터,스마트쉼터,,서소문동 136-1,05:00:00 ~ 익일 01:00:00,,,,"서소문
버스정류장(02-133)",,,Y,"['폭염', '비', '눈', '한파', '미세먼지']",실내,Y,Y,Y,37.56310084,126.9745919
중구형 스마트쉼터,스마트쉼터,,필동1가 13-2,05:00:00 ~ 익일 01:00:00,,,,"퇴계로3가·한옥마을·한국의집
버스정류장(02-151)",,,Y,"['폭염', '비', '눈', '한파', '미세먼지']",실내,Y,Y,Y,37.56097741,126.9920611
중구형 스마트쉼터,스마트쉼터,,을지로2가 193-2,05:00:00 ~ 익일 01:00:00,,,,"을지로입구·로얄호텔
버스정류장(02-156)",,,Y,"['폭염', '비', '눈', '한파', '미세먼지']",실내,Y,Y,Y,37.5660538,126.9854266
중구형 스마트쉼터,스마트쉼터,,태평로1가 63-17,05:00:00 ~ 익일 01:00:00,,,,"서울신문사
버스정류장(02-137)",,,Y,"['폭염', '비', '눈', '한파', '미세먼지']",실내,Y,Y,Y,37.56886639,126.9771699
중구형 스마트쉼터,스마트쉼터,,을지로1가 100-1,05:00:00 ~ 익일 01:00:00,,,,"을지로입구·시청입구
버스정류장(02-157)",,,Y,"['폭염', '비', '눈', '한파', '미세먼지']",실내,Y,Y,Y,37.56605956,126.9820843
중구형 스마트쉼터,스마트쉼터,,을지로4가 267-1,05:00:00 ~ 익일 01:00:00,,,,"을지로4가·베스트웨스턴국도
버스정류장(02-163)",,,Y,"['폭염', '비', '눈', '한파', '미세먼지']",실내,Y,Y,Y,37.5665283,126.9965433
중구형 스마트쉼터,스마트쉼터,,을지로1가 194-2,05:00:00 ~ 익일 01:00:00,,,,"서울광장
버스정류장(02-641)",,,Y,"['폭염', '비', '눈', '한파', '미세먼지']",실내,Y,Y,Y,37.56529391,126.9789267
중구형 스마트쉼터,스마트쉼터,,태평로2가 113-1,05:00:00 ~ 익일 01:00:00,,,,"시청앞
버스정류장(02-128)",,,Y,"['폭염', '비', '눈', '한파', '미세먼지']",실내,Y,Y,Y,37.56299305,126.9765924
중구형 스마트쉼터,스마트쉼터,,을지로6가 18-20,05:00:00 ~ 익일 01:00:00,,,,"동대문역사문화공원
버스정류장(02-173)",,,Y,"['폭염', '비', '눈', '한파', '미세먼지']",실내,Y,Y,Y,37.5663304,127.0066669
중구형 스마트쉼터,스마트쉼터,,을지로7가 143,05:00:00 ~ 익일 01:00:00,,,,"동대문역사문화공원
버스정류장(02-174)",,,Y,"['폭염', '비', '눈', '한파', '미세먼지']",실내,Y,Y,Y,37.56690059,127.009913
중구형 스마트쉼터,스마트쉼터,,남산동1가 1-1,05:00:00 ~ 익일 01:00:00,,,,"명동역4번출구 
버스정류장(02-149)",,,Y,"['폭염', '비', '눈', '한파', '미세먼지']",실내,Y,Y,Y,37.56074787,126.9850051
스마트쉼터,스마트쉼터,,신영동 124-1,05:00:00 ~ 익일 01:00:00,,,,시내버스정류장 인근,,,Y,"['폭염', '비', '눈', '한파', '미세먼지']",실내,Y,Y,Y,37.60245938,126.9612874
스마트쉼터,스마트쉼터,,숭인동 76,05:00:00 ~ 익일 01:00:00,,,,시내버스정류장 인근,,,Y,"['폭염', '비', '눈', '한파', '미세먼지']",실내,Y,Y,Y,37.57385171,127.0161778
스마트 휴 쉼터,스마트쉼터,,서울시 광진구 아차산로 563,05:00:00 ~ 익일 01:00:00,,,,광나루지구대앞 버스정류장,,,Y,"['폭염', '비', '눈', '한파', '미세먼지']",실내,Y,Y,Y,37.54413407,127.1029306
스마트 휴 쉼터,스마트쉼터,,서울시 광진구 능동로 90,05:00:00 ~ 익일 01:00:00,,,,광진문화예술회관앞 버스정류장,,,Y,"['폭염', '비', '눈', '한파', '미세먼지']",실내,Y,Y,Y,37.53836258,127.0709218
스마트 휴 쉼터,스마트쉼터,,서울시 광진구 자양로 117,05:00:00 ~ 익일 01:00:00,,,,광진구청앞 버스정류장,,,Y,"['폭염', '비', '눈', '한파', '미세먼지']",실내,Y,Y,Y,37.53853161,127.0819098
스마트 휴 쉼터,스마트쉼터,,서울시 광진구 아차산로 411,05:00:00 ~ 익일 01:00:00,,,,구의역2번출구앞 버스정류장,,,Y,"['폭염', '비', '눈', '한파', '미세먼지']",실내,Y,Y,Y,37.53782997,127.0879704
스마트 에코 쉼터,스마트쉼터,,서울시 성북구 정릉로 367-2,05:00:00 ~ 익일 01:00:00,,,,길음뉴타운 10단지 버스정류장,,,Y,"['폭염', '비', '눈', '한파', '미세먼지']",실내,Y,Y,Y,37.60227407,127.0240657
스마트쉼터,스마트쉼터,,서울시 강북구 도봉로 329 앞,05:00:00 ~ 익일 01:00:00,,,,수유역 6번 출구 앞,,,Y,"['폭염', '비', '눈', '한파', '미세먼지']",실내,Y,Y,Y,37.63755319,127.0247016
스마트쉼터,스마트쉼터,,서울시 강북구 도봉로 62 앞,05:00:00 ~ 익일 01:00:00,,,,미아사거리역 1번 출구 앞,,,Y,"['폭염', '비', '눈', '한파', '미세먼지']",실내,Y,Y,Y,37.61459298,127.0305177
스마트마루,스마트쉼터,,목동 406-21,05:00:00 ~ 익일 01:00:00,,,,목동대학학원 버스정류장,,,Y,"['폭염', '비', '눈', '한파', '미세먼지']",실내,Y,Y,Y,37.52515319,126.8737198
스마트마루,스마트쉼터,,신월동 502-5,05:00:00 ~ 익일 01:00:00,,,,신정네거리 분수광장 인근,,,Y,"['폭염', '비', '눈', '한파', '미세먼지']",실내,Y,Y,Y,37.52217448,126.8516396
스마트마루,스마트쉼터,,신월동 545-8,05:00:00 ~ 익일 01:00:00,,,,신한은행 신월동 지점 버스정류장,,,Y,"['폭염', '비', '눈', '한파', '미세먼지']",실내,Y,Y,Y,37.51821851,126.8415565
스마트그린쉼터,스마트쉼터,,강서구 방화3동 855,05:00:00 ~ 익일 01:00:00,,,,방화근린공원,,,Y,"['폭염', '비', '눈', '한파', '미세먼지']",실내,Y,Y,Y,37.58087532,126.8144643
스마트그린쉼터,스마트쉼터,,강서구 화곡본동 56-3,05:00:00 ~ 익일 01:00:00,,,,한글어린이공원,,,Y,"['폭염', '비', '눈', '한파', '미세먼지']",실내,Y,Y,Y,37.53852334,126.8505119
스마트그린쉼터,스마트쉼터,,강서구 강서로 463,05:00:00 ~ 익일 01:00:00,,,,양천향교역 7번 출구,,,Y,"['폭염', '비', '눈', '한파', '미세먼지']",실내,Y,Y,Y,37.56694636,126.8404463
스마트안전쉼터,스마트쉼터,,강서구 우장산로 72-1,05:00:00 ~ 익일 01:00:00,,,,우장산근린공원,,,Y,"['폭염', '비', '눈', '한파', '미세먼지']",실내,Y,Y,Y,37.55266616,126.8434443
스마트그린쉼터,스마트쉼터,,강서구 화곡동 1074-12,05:00:00 ~ 익일 01:00:00,,,,화곡역 6번 출구,,,Y,"['폭염', '비', '눈', '한파', '미세먼지']",실내,Y,Y,Y,37.54093373,126.8389594
스마트그린쉼터,스마트쉼터,,강서구 화곡동 1089-3,05:00:00 ~ 익일 01:00:00,,,,우장산역 1번 출구,,,Y,"['폭염', '비', '눈', '한파', '미세먼지']",실내,Y,Y,Y,37.54922518,126.836414
스마트그린쉼터,스마트쉼터,,강서구 마곡동 812,05:00:00 ~ 익일 01:00:00,,,,마곡나루역 4번 출구,,,Y,"['폭염', '비', '눈', '한파', '미세먼지']",실내,Y,Y,Y,37.56817212,126.8329869
스마트그린쉼터,스마트쉼터,,강서구 마곡동 727-1428,05:00:00 ~ 익일 01:00:00,,,,마곡역 2번 출구,,,Y,"['폭염', '비', '눈', '한파', '미세먼지']",실내,Y,Y,Y,37.55996812,126.8255826
스마트쉼터,스마트쉼터,,서울특별시 동작구 상도로 365-2,05:00:00 ~ 익일 01:00:00,,,,숭실대입구역(20-166),,,Y,"['폭염', '비', '눈', '한파', '미세먼지']",실내,Y,Y,Y,37.49628585,126.9538852
스마트쉼터,스마트쉼터,,서울특별시 동작구사당로218,05:00:00 ~ 익일 01:00:00,,,,남성역(20-178),,,Y,"['폭염', '비', '눈', '한파', '미세먼지']",실내,Y,Y,Y,37.48444339,126.9717061
스마트쉼터,스마트쉼터,, 서울특별시 동작구 만양로 6,05:00:00 ~ 익일 01:00:00,,,,상도노빌리티역(20-155),,,Y,"['폭염', '비', '눈', '한파', '미세먼지']",실내,Y,Y,Y,37.5049819,126.9467885
스마트쉼터,스마트쉼터,,서울특별시 동작구 상도동 329-2,05:00:00 ~ 익일 01:00:00,,,,성대시장(20-147),,,Y,"['폭염', '비', '눈', '한파', '미세먼지']",실내,Y,Y,Y,37.50028513,126.9313963
스마트쉼터,스마트쉼터,,서울특별시 동작구 보라매로 95-2,05:00:00 ~ 익일 01:00:00,,,,신대방삼거리(20-186),,,Y,"['폭염', '비', '눈', '한파', '미세먼지']",실내,Y,Y,Y,37.49793187,126.9279051
스마트쉼터,스마트쉼터,,서울특별시 동작구 사당동 산 31-37번지,05:00:00 ~ 익일 01:00:00,,,,사당롯데캐슬골드포레정류소(20-213),,,Y,"['폭염', '비', '눈', '한파', '미세먼지']",실내,Y,Y,Y,37.49224603,126.9634785
스마트쉼터,스마트쉼터,,서울 관악구 남부순환로 1640,05:00:00 ~ 익일 01:00:00,,,,시내버스정류장,,,Y,"['폭염', '비', '눈', '한파', '미세먼지']",실내,Y,Y,Y,37.48430771,126.9328955
스마트쉼터,스마트쉼터,,서울 관악구 낙성대로 77,05:00:00 ~ 익일 01:00:00,,,,시내버스정류장,,,Y,"['폭염', '비', '눈', '한파', '미세먼지']",실내,Y,Y,Y,37.47197208,126.959371
스마트쉼터,스마트쉼터,,서울 관악구 관악로 1,05:00:00 ~ 익일 01:00:00,,,,시내버스정류장,,,Y,"['폭염', '비', '눈', '한파', '미세먼지']",실내,Y,Y,Y,37.46628727,126.9481564
스마트쉼터,스마트쉼터,,노원구 상계동 694-1,05:00:00 ~ 익일 01:00:00,,,,상계주공10단지 버스정류소,,,Y,"['폭염', '비', '눈', '한파', '미세먼지']",실내,Y,Y,Y,37.66006128,127.0590147
스마트쉼터,스마트쉼터,,서울 동대문구 전농동 620-67,05:00:00 ~ 익일 01:00:00,,,,청량리역 환승센터 1번 승강장,,,Y,"['폭염', '비', '눈', '한파', '미세먼지']",실내,Y,Y,Y,37.58342867,127.0494521
스마트쉼터,스마트쉼터,,서울시 동대문구 고산자로 402,05:00:00 ~ 익일 01:00:00,,,,동대문구청ㆍ용두역3번출구,,,Y,"['폭염', '비', '눈', '한파', '미세먼지']",실내,Y,Y,Y,37.57545238,127.0385007
스마트쉼터,스마트쉼터,,서울시 동대문구 전농동 691-3,05:00:00 ~ 익일 01:00:00,,,,동대문중학교,,,Y,"['폭염', '비', '눈', '한파', '미세먼지']",실내,Y,Y,Y,37.57542353,127.0535668
스마트쉼터,스마트쉼터,,서울시 동대문구 왕산로 205,05:00:00 ~ 익일 01:00:00,,,,청량리역 환승센터 5번 승강장,,,Y,"['폭염', '비', '눈', '한파', '미세먼지']",실내,Y,Y,Y,37.58089358,127.0455726
스마트쉼터,스마트쉼터,,서울특별시 성동구 고산자로 280,05:00:00 ~ 익일 01:00:00,,,,성동구청 버스정류장 (04574),,,Y,"['폭염', '비', '눈', '한파', '미세먼지']",실내,Y,Y,Y,37.56400914,127.0366883
스마트쉼터,스마트쉼터,,서울특별시 성동구 왕십리로 410,05:00:00 ~ 익일 01:00:00,,,,"센트라스, 성동고방면 버스정류장 (04103)",,,Y,"['폭염', '비', '눈', '한파', '미세먼지']",실내,Y,Y,Y,37.56660293,127.0240825
스마트쉼터,스마트쉼터,,서울특별시 성동구 고산자로 164,05:00:00 ~ 익일 01:00:00,,,,상왕십리역 버스정류장 (04102),,,Y,"['폭염', '비', '눈', '한파', '미세먼지']",실내,Y,Y,Y,37.55506876,127.0354241
스마트쉼터,스마트쉼터,,서울특별시 성동구 광나루로 311,05:00:00 ~ 익일 01:00:00,,,,성동세무서 버스정류장 (04213),,,Y,"['폭염', '비', '눈', '한파', '미세먼지']",실내,Y,Y,Y,37.54833047,127.064235
스마트쉼터,스마트쉼터,,서울특별시 성동구 왕십리로 222,05:00:00 ~ 익일 01:00:00,,,,한양대정문 앞 버스정류장 (04130),,,Y,"['폭염', '비', '눈', '한파', '미세먼지']",실내,Y,Y,Y,37.55450355,127.0466112
스마트쉼터,스마트쉼터,,서울특별시 성동구 매봉길 50,05:00:00 ~ 익일 01:00:00,,,,금호역 버스정류장 (04156),,,Y,"['폭염', '비', '눈', '한파', '미세먼지']",실내,Y,Y,Y,37.54729891,127.0121894
스마트쉼터,스마트쉼터,,서울특별시 성동구 독서당로 211,05:00:00 ~ 익일 01:00:00,,,,옥수파출소 앞 버스정류장 (04162),,,Y,"['폭염', '비', '눈', '한파', '미세먼지']",실내,Y,Y,Y,37.54383892,127.0143489
스마트쉼터,스마트쉼터,,서울특별시 성동구 금호로 173,05:00:00 ~ 익일 01:00:00,,,,신금호역 버스정류장 (04146),,,Y,"['폭염', '비', '눈', '한파', '미세먼지']",실내,Y,Y,Y,37.55627884,127.0181523
스마트쉼터,스마트쉼터,,서울특별시 성동구 독서당로 424,05:00:00 ~ 익일 01:00:00,,,,응봉동주민센터 버스정류장 (04138),,,Y,"['폭염', '비', '눈', '한파', '미세먼지']",실내,Y,Y,Y,37.55313923,127.0334024
스마트쉼터,스마트쉼터,,서울특별시 성동구 뚝섬로 377,05:00:00 ~ 익일 01:00:00,,,,성수동이마트 버스정류장 (04198),,,Y,"['폭염', '비', '눈', '한파', '미세먼지']",실내,Y,Y,Y,37.54002085,127.0529082
스마트쉼터,스마트쉼터,,서울특별시 성동구 고산자로 201,05:00:00 ~ 익일 01:00:00,,,,무학여고 앞 버스정류장 (04132),,,Y,"['폭염', '비', '눈', '한파', '미세먼지']",실내,Y,Y,Y,37.55805317,127.0337642
스마트쉼터,스마트쉼터,,서울특별시 성동구 고산자로 340,05:00:00 ~ 익일 01:00:00,,,,마장축산물(도선사거리) 버스정류장 (04120),,,Y,"['폭염', '비', '눈', '한파', '미세먼지']",실내,Y,Y,Y,37.56978001,127.037878
스마트쉼터,스마트쉼터,,서울특별시 성동구 고산자로 345,05:00:00 ~ 익일 01:00:00,,,,마장축산물(동대문) 버스정류장 (04119),,,Y,"['폭염', '비', '눈', '한파', '미세먼지']",실내,Y,Y,Y,37.57047818,127.0373426
스마트쉼터,스마트쉼터,,서울특별시 성동구 천호대로 302,05:00:00 ~ 익일 01:00:00,,,,"용답동부시장,답십리역 버스정류장 (04218)",,,Y,"['폭염', '비', '눈', '한파', '미세먼지']",실내,Y,Y,Y,,
스마트쉼터,스마트쉼터,,서울특별시 성동구 행당로 87,05:00:00 ~ 익일 01:00:00,,,,"행당역,대림아파트정문 버스정류장 (04280)",,,Y,"['폭염', '비', '눈', '한파', '미세먼지']",실내,Y,Y,Y,37.55729212,127.0285443
스마트쉼터,스마트쉼터,,서울특별시 성동구 왕십리로 58,05:00:00 ~ 익일 01:00:00,,,,서울숲(구민종합체육센터) 버스정류장 (04177),,,Y,"['폭염', '비', '눈', '한파', '미세먼지']",실내,Y,Y,Y,37.54269588,127.0452053
스마트쉼터,스마트쉼터,,서울특별시 성동구 동일로 169,05:00:00 ~ 익일 01:00:00,,,,화양사거리(성수초) 버스정류장 (04207),,,Y,"['폭염', '비', '눈', '한파', '미세먼지']",실내,Y,Y,Y,37.54755313,127.0665945
스마트쉼터,스마트쉼터,,서울특별시 성동구 왕십리로 369,05:00:00 ~ 익일 01:00:00,,,,상왕십리역(왕십리2동주민센터) 버스정류장 (04101),,,Y,"['폭염', '비', '눈', '한파', '미세먼지']",실내,Y,Y,Y,37.56422094,127.0290191
스마트쉼터,스마트쉼터,,서울특별시 성동구 아차산로 42,05:00:00 ~ 익일 01:00:00,,,,뚝섬역 3번5번출구 버스정류장 (04238),,,Y,"['폭염', '비', '눈', '한파', '미세먼지']",실내,Y,Y,Y,37.54643473,127.0491001
스마트쉼터,스마트쉼터,,서울특별시 성동구 동일로 265,05:00:00 ~ 익일 01:00:00,,,,송정동건영아파트 버스정류장 (04215),,,Y,"['폭염', '비', '눈', '한파', '미세먼지']",실내,Y,Y,Y,37.55532809,127.0711086
스마트쉼터,스마트쉼터,,서울특별시 성동구 행당동 192-3,05:00:00 ~ 익일 01:00:00,,,,왕십리역 4번출구 버스정류장 (04302),,,Y,"['폭염', '비', '눈', '한파', '미세먼지']",실내,Y,Y,Y,37.56170852,127.0370561
스마트쉼터,스마트쉼터,,서울특별시 성동구 왕십리로 136,05:00:00 ~ 익일 01:00:00,,,,성동교남단 버스정류장 (04185),,,Y,"['폭염', '비', '눈', '한파', '미세먼지']",실내,Y,Y,Y,37.54969337,127.0445638
스마트쉼터,스마트쉼터,,서울특별시 성동구 고산자로 164,05:00:00 ~ 익일 01:00:00,,,,응봉사거리 버스정류장 (04140),,,Y,"['폭염', '비', '눈', '한파', '미세먼지']",실내,Y,Y,Y,37.55506876,127.0354241
스마트쉼터,스마트쉼터,,서울특별시 성동구 왕십리로 336,05:00:00 ~ 익일 01:00:00,,,,"코스모타워,신용보증재단 버스정류장 (04110)",,,Y,"['폭염', '비', '눈', '한파', '미세먼지']",실내,Y,Y,Y,37.563151,127.0328462
스마트쉼터,스마트쉼터,,서울특별시 성동구 독서당로 381,05:00:00 ~ 익일 01:00:00,,,,응봉현대아파트 버스정류장 (04142),,,Y,"['폭염', '비', '눈', '한파', '미세먼지']",실내,Y,Y,Y,37.55019478,127.030693
스마트쉼터,스마트쉼터,,서울특별시 성동구 행당로6길 97,05:00:00 ~ 익일 01:00:00,,,,행당역 버스정류장 (04279),,,Y,"['폭염', '비', '눈', '한파', '미세먼지']",실내,Y,Y,Y,37.5572008,127.0301759
스마트쉼터,스마트쉼터,,서울특별시 성동구 왕십리로5길 3,05:00:00 ~ 익일 01:00:00,,,,성동구민종합체육센터 버스정류장 (04180),,,Y,"['폭염', '비', '눈', '한파', '미세먼지']",실내,Y,Y,Y,37.54640255,127.0443497
스마트쉼터,스마트쉼터,,서울특별시 성동구 광나루로11길 54,05:00:00 ~ 익일 01:00:00,,,,장미소공원 버스정류장 (04500),,,Y,"['폭염', '비', '눈', '한파', '미세먼지']",실내,Y,Y,Y,37.55213729,127.0686988
스마트쉼터,스마트쉼터,,서울특별시 성동구 마장로 292,05:00:00 ~ 익일 01:00:00,,,,마장역 버스정류장 (04117),,,Y,"['폭염', '비', '눈', '한파', '미세먼지']",실내,Y,Y,Y,37.56538308,127.0423237
스마트쉼터,스마트쉼터,,서울특별시 성동구 마조로 77,05:00:00 ~ 익일 01:00:00,,,,성동노인복지관 버스정류장 (04118),,,Y,"['폭염', '비', '눈', '한파', '미세먼지']",실내,Y,Y,Y,37.56478466,127.0412399
스마트쉼터,스마트쉼터,,서울특별시 성동구 청계천로 506,05:00:00 ~ 익일 01:00:00,,,,"성동사회복지관,청계천박물관 버스정류장 (04595)",,,Y,"['폭염', '비', '눈', '한파', '미세먼지']",실내,Y,Y,Y,37.57022302,127.0334402
스마트쉼터,스마트쉼터,,서울특별시 성동구 청계천로 546,05:00:00 ~ 익일 01:00:00,,,,성동구도시관리공단 버스정류장 (04600),,,Y,"['폭염', '비', '눈', '한파', '미세먼지']",실내,Y,Y,Y,37.57171493,127.0369038
스마트쉼터,스마트쉼터,,서울특별시 성동구 마조로 14,05:00:00 ~ 익일 01:00:00,,,,"한양대앞, 한양시장 버스정류장 (04127)",,,Y,"['폭염', '비', '눈', '한파', '미세먼지']",실내,Y,Y,Y,37.55901111,127.0411532
스마트쉼터,스마트쉼터,,서울특별시 성동구 응봉동 193,05:00:00 ~ 익일 01:00:00,,,,"광희중학교, 응봉역 버스정류장 (04821)",,,Y,"['폭염', '비', '눈', '한파', '미세먼지']",실내,Y,Y,Y,37.5508618,127.033949
스마트쉼터,스마트쉼터,,서울특별시 성동구 난계로 58,05:00:00 ~ 익일 01:00:00,,,,논골신협대림아파트 후문 버스정류장 (04560),,,Y,"['폭염', '비', '눈', '한파', '미세먼지']",실내,Y,Y,Y,37.55781143,127.0246469
스마트쉼터,스마트쉼터,,서울특별시 성동구 독서당로 343,05:00:00 ~ 익일 01:00:00,,,,삼성래미안아파트 버스정류장 (04160),,,Y,"['폭염', '비', '눈', '한파', '미세먼지']",실내,Y,Y,Y,37.54981177,127.0270079
스마트쉼터,스마트쉼터,,서울특별시 성동구 동호로2가길 9-10,05:00:00 ~ 익일 01:00:00,,,,"금호역(2번출구옆, 금호터널입구방면) 버스정류장 (04155)",,,Y,"['폭염', '비', '눈', '한파', '미세먼지']",실내,Y,Y,Y,37.54781701,127.0164352
스마트쉼터,스마트쉼터,,서울특별시 성동구 동호로 102,05:00:00 ~ 익일 01:00:00,,,,금호역(마을버스 정문) 버스정류장 (04764),,,Y,"['폭염', '비', '눈', '한파', '미세먼지']",실내,Y,Y,Y,37.54887929,127.0164225
스마트쉼터,스마트쉼터,,서울특별시 성동구 독서당로 342,05:00:00 ~ 익일 01:00:00,,,,힐스테이트서울숲리버 버스정류장 (04159),,,Y,"['폭염', '비', '눈', '한파', '미세먼지']",실내,Y,Y,Y,37.547886,127.0268881
스마트쉼터,스마트쉼터,,서울특별시 성동구 왕십리로 63,05:00:00 ~ 익일 01:00:00,,,,서울숲(똑도아리수정수센터) 버스정류장 (04178),,,Y,"['폭염', '비', '눈', '한파', '미세먼지']",실내,Y,Y,Y,37.5436228,127.0435859
스마트쉼터,스마트쉼터,,서울특별시 성동구 아차산로 41,05:00:00 ~ 익일 01:00:00,,,,뚝섬역 4번출구 버스정류장 (04239),,,Y,"['폭염', '비', '눈', '한파', '미세먼지']",실내,Y,Y,Y,37.5469652,127.0489755
스마트쉼터,스마트쉼터,,서울특별시 성동구 광나루로 144,05:00:00 ~ 익일 01:00:00,,,,상원 버스정류장 (04187),,,Y,"['폭염', '비', '눈', '한파', '미세먼지']",실내,Y,Y,Y,37.55130003,127.0464354
스마트쉼터,스마트쉼터,,서울특별시 성동구 아차산로 17,05:00:00 ~ 익일 01:00:00,,,,뚝섬역 2번출구 버스정류장 (04237),,,Y,"['폭염', '비', '눈', '한파', '미세먼지']",실내,Y,Y,Y,37.54796075,127.0464405
스마트쉼터,스마트쉼터,,서울특별시 성동구 아차산로 163,05:00:00 ~ 익일 01:00:00,,,,성수사거리 버스정류장 (04257),,,Y,"['폭염', '비', '눈', '한파', '미세먼지']",실내,Y,Y,Y,37.54296004,127.0620839
스마트쉼터,스마트쉼터,,서울특별시 성동구 광나루로 243,05:00:00 ~ 익일 01:00:00,,,,제인병원 버스정류장 (04211),,,Y,"['폭염', '비', '눈', '한파', '미세먼지']",실내,Y,Y,Y,37.54946127,127.0569437
스마트쉼터,스마트쉼터,,서울특별시 성동구 동일로 291,05:00:00 ~ 익일 01:00:00,,,,군자교남단 버스정류장 (04216),,,Y,"['폭염', '비', '눈', '한파', '미세먼지']",실내,Y,Y,Y,37.55762073,127.0723628
스마트쉼터,스마트쉼터,,서울특별시 성동구 천호대로 232,05:00:00 ~ 익일 01:00:00,,,,신답역 버스정류장 (04217),,,Y,"['폭염', '비', '눈', '한파', '미세먼지']",실내,Y,Y,Y,37.56999106,127.0468202
스마트쉼터,스마트쉼터,,서울특별시 성동구 하왕십리동 259-12,05:00:00 ~ 익일 01:00:00,,,,"청계벽산아파트, 텐즈힐아파트버스정류장 (04107)",,,Y,"['폭염', '비', '눈', '한파', '미세먼지']",실내,Y,Y,Y,37.5680981,127.0301248
스마트쉼터,스마트쉼터,,서울특별시 성동구 상왕십리동 16-4,05:00:00 ~ 익일 01:00:00,,,,"황학교, 텐즈힐몰버스정류장 (04295)",,,Y,"['폭염', '비', '눈', '한파', '미세먼지']",실내,Y,Y,Y,37.57060275,127.023502
스마트쉼터,스마트쉼터,,서울특별시 성동구 하왕십리동 282-4,05:00:00 ~ 익일 01:00:00,,,,청계벽산아파트.텐즈힐아파트 버스정류장 (04106),,,Y,"['폭염', '비', '눈', '한파', '미세먼지']",실내,Y,Y,Y,37.56865002,127.0302236
스마트쉼터,스마트쉼터,,서울특별시 성동구 홍익동 590,05:00:00 ~ 익일 01:00:00,,,,상왕십리역?센트라스아파트 버스정류장 (04114),,,Y,"['폭염', '비', '눈', '한파', '미세먼지']",실내,Y,Y,Y,37.56591451,127.0363149
스마트쉼터,스마트쉼터,,서울특별시 성동구 성수동2가 280-41,05:00:00 ~ 익일 01:00:00,,,,성동세무서앞 버스정류장 (04212),,,Y,"['폭염', '비', '눈', '한파', '미세먼지']",실내,Y,Y,Y,37.54790342,127.0619998
스마트쉼터,스마트쉼터,,서울특별시 성동구 성수동1가 656-853,05:00:00 ~ 익일 01:00:00,,,,뚝섬역 8번출구 버스정류장 (04236),,,Y,"['폭염', '비', '눈', '한파', '미세먼지']",실내,Y,Y,Y,37.54800076,127.0450109
스마트파고라,스마트쉼터,,서울특별시 용산구 신계동 55,05:00:00 ~ 익일 01:00:00,,,,신계역사공원,,,Y,"['폭염', '비', '눈', '한파', '미세먼지']",실내,Y,Y,Y,37.53542895,126.9664122
용산형 스마트쉼터,스마트쉼터,,용산역광장앞(03-258),05:00:00 ~ 익일 01:00:00,,,,용산역광장앞,,,Y,"['폭염', '비', '눈', '한파', '미세먼지']",실내,Y,Y,Y,,
용산형 스마트쉼터,스마트쉼터,,이촌동한가람아파트. 이촌역(03-217),05:00:00 ~ 익일 01:00:00,,,,이촌동한가람아파트. 이촌역,,,Y,"['폭염', '비', '눈', '한파', '미세먼지']",실내,Y,Y,Y,,
용산형 스마트쉼터,스마트쉼터,,한강진역. 블루스퀘어(03-180),05:00:00 ~ 익일 01:00:00,,,,한강진역. 블루스퀘어,,,Y,"['폭염', '비', '눈', '한파', '미세먼지']",실내,Y,Y,Y,,
용산형 스마트쉼터,스마트쉼터,,효창공원앞역. 이봉창역사울림관(03-180),05:00:00 ~ 익일 01:00:00,,,,효창공원앞역. 이봉창역사울림관,,,Y,"['폭염', '비', '눈', '한파', '미세먼지']",실내,Y,Y,Y,,
용산형 스마트쉼터,스마트쉼터,,순천향대학병원. 한남오거리(03-165),05:00:00 ~ 익일 01:00:00,,,,순천향대학병원. 한남오거리,,,Y,"['폭염', '비', '눈', '한파', '미세먼지']",실내,Y,Y,Y,,
스마트쉼터,스마트쉼터,,불광로 41,05:00:00 ~ 익일 01:00:00,,,,불광초(불광역) 버스정류장,,,Y,"['폭염', '비', '눈', '한파', '미세먼지']",실내,Y,Y,Y,37.61153088,126.9302558
스마트쉼터,스마트쉼터,,서오릉로 165,05:00:00 ~ 익일 01:00:00,,,,역촌중앙시장(구산역) 버스정류장,,,Y,"['폭염', '비', '눈', '한파', '미세먼지']",실내,Y,Y,Y,37.61224035,126.9150401
스마트쉼터,스마트쉼터,,서오릉로 253,05:00:00 ~ 익일 01:00:00,,,,수국사입구 버스정류장,,,Y,"['폭염', '비', '눈', '한파', '미세먼지']",실내,Y,Y,Y,37.61697084,126.9063905
스마트쉼터,스마트쉼터,,연서로 214,05:00:00 ~ 익일 01:00:00,,,,로데오거리(연신내역) 버스정류장,,,Y,"['폭염', '비', '눈', '한파', '미세먼지']",실내,Y,Y,Y,37.6174451,126.9199521
스마트쉼터,스마트쉼터,,서오릉로 74,05:00:00 ~ 익일 01:00:00,,,,역촌오거리(역촌역) 버스정류장,,,Y,"['폭염', '비', '눈', '한파', '미세먼지']",실내,Y,Y,Y,37.60706226,126.9224901
스마트쉼터,스마트쉼터,,은평로 170,05:00:00 ~ 익일 01:00:00,,,,은평세무서 버스정류장,,,Y,"['폭염', '비', '눈', '한파', '미세먼지']",실내,Y,Y,Y,37.60108939,126.9266624
스마트쉼터,스마트쉼터,,은평로 142,05:00:00 ~ 익일 01:00:00,,,,서부병원 버스정류장,,,Y,"['폭염', '비', '눈', '한파', '미세먼지']",실내,Y,Y,Y,37.60049443,126.9234946
스마트쉼터,스마트쉼터,,은평로 63,05:00:00 ~ 익일 01:00:00,,,,신사오거리(응암역) 버스정류장,,,Y,"['폭염', '비', '눈', '한파', '미세먼지']",실내,Y,Y,Y,37.59907693,126.9148463
스마트쉼터,스마트쉼터,,증산로 297,05:00:00 ~ 익일 01:00:00,,,,증산역 버스정류장,,,Y,"['폭염', '비', '눈', '한파', '미세먼지']",실내,Y,Y,Y,37.58382229,126.9092374
스마트쉼터,스마트쉼터,,연서로 149,05:00:00 ~ 익일 01:00:00,,,,구산역 4번출구(구산역) 버스정류장,,,Y,"['폭염', '비', '눈', '한파', '미세먼지']",실내,Y,Y,Y,37.61221132,126.916914
스마트쉼터,스마트쉼터,,백련산로 112,05:00:00 ~ 익일 01:00:00,,,,응암2동주민센터 버스정류장,,,Y,"['폭염', '비', '눈', '한파', '미세먼지']",실내,Y,Y,Y,37.59499718,126.9233057
그린스마트쉼터,스마트쉼터,,강남구 압구정로 343,05:00:00 ~ 익일 01:00:00,,,,한양아파트.압구정로데오역(23158)버스정류장,,,Y,"['폭염', '비', '눈', '한파', '미세먼지']",실내,Y,Y,Y,37.52847544,127.0400527
그린스마트쉼터,스마트쉼터,,강남구 학동로 425,05:00:00 ~ 익일 01:00:00,,,,강남구청.강남세무서(23176)버스정류장,,,Y,"['폭염', '비', '눈', '한파', '미세먼지']",실내,Y,Y,Y,37.51871603,127.0469585
그린스마트쉼터,스마트쉼터,,강남구 테헤란로 521,05:00:00 ~ 익일 01:00:00,,,,한국무역센터.삼성역(23201)버스정류장,,,Y,"['폭염', '비', '눈', '한파', '미세먼지']",실내,Y,Y,Y,37.50919169,127.0608069
그린스마트쉼터,스마트쉼터,,강남구 테헤란로 507,05:00:00 ~ 익일 01:00:00,,,,포스코사거리(23514)버스정류장,,,Y,"['폭염', '비', '눈', '한파', '미세먼지']",실내,Y,Y,Y,37.50766522,127.0577262
그린스마트쉼터,스마트쉼터,,강남구 테헤란로 409,05:00:00 ~ 익일 01:00:00,,,,선릉역(23241)버스정류장,,,Y,"['폭염', '비', '눈', '한파', '미세먼지']",실내,Y,Y,Y,37.50536012,127.0503869
그린스마트쉼터,스마트쉼터,,강남구 테헤란로 305,05:00:00 ~ 익일 01:00:00,,,,서울상록회관.한국기술센터(23277)버스정류장,,,Y,"['폭염', '비', '눈', '한파', '미세먼지']",실내,Y,Y,Y,37.50334062,127.0437808
그린스마트쉼터,스마트쉼터,,강남구 테헤란로 207,05:00:00 ~ 익일 01:00:00,,,,아가방빌딩.하나은행(23280)버스정류장,,,Y,"['폭염', '비', '눈', '한파', '미세먼지']",실내,Y,Y,Y,37.50171193,127.0387144
그린스마트쉼터,스마트쉼터,,강남구 테헤란로 134,05:00:00 ~ 익일 01:00:00,,,,역삼역.포스코타워역삼(23288)버스정류장,,,Y,"['폭염', '비', '눈', '한파', '미세먼지']",실내,Y,Y,Y,37.49937533,127.0338034
그린스마트쉼터,스마트쉼터,,강남구 테헤란로 306,05:00:00 ~ 익일 01:00:00,,,,한국자산신탁.센터필드(23306)버스정류장,,,Y,"['폭염', '비', '눈', '한파', '미세먼지']",실내,Y,Y,Y,37.50259528,127.044102
그린스마트쉼터,스마트쉼터,,강남구 테헤란로 408,05:00:00 ~ 익일 01:00:00,,,,선릉역(23259)버스정류장,,,Y,"['폭염', '비', '눈', '한파', '미세먼지']",실내,Y,Y,Y,37.50446821,127.050387
그린스마트쉼터,스마트쉼터,,강남구 테헤란로 439,05:00:00 ~ 익일 01:00:00,,,,포스코건너편(23217)버스정류장,,,Y,"['폭염', '비', '눈', '한파', '미세먼지']",실내,Y,Y,Y,37.50682904,127.0551873
그린스마트쉼터,스마트쉼터,,강남구 테헤란로 528,05:00:00 ~ 익일 01:00:00,,,,한국무역센터.삼성역(23251)버스정류장,,,Y,"['폭염', '비', '눈', '한파', '미세먼지']",실내,Y,Y,Y,37.50809527,127.062
그린스마트쉼터,스마트쉼터,,강남구 도산대로 125,05:00:00 ~ 익일 01:00:00,,,,신사역8번출구.가로수길(23108)버스정류장,,,Y,"['폭염', '비', '눈', '한파', '미세먼지']",실내,Y,Y,Y,37.51757597,127.0220526
그린스마트쉼터,스마트쉼터,,강남구 도산대로 157,05:00:00 ~ 익일 01:00:00,,,,신사동고개(23107)버스정류장,,,Y,"['폭염', '비', '눈', '한파', '미세먼지']",실내,Y,Y,Y,37.5190319,127.0256428
그린스마트쉼터,스마트쉼터,,강남구 도산대로 217,05:00:00 ~ 익일 01:00:00,,,,신사동교회(23151)버스정류장,,,Y,"['폭염', '비', '눈', '한파', '미세먼지']",실내,Y,Y,Y,37.52082661,127.0305602
그린스마트쉼터,스마트쉼터,,강남구 도산대로 305,05:00:00 ~ 익일 01:00:00,,,,도산공원사거리(23155)버스정류장,,,Y,"['폭염', '비', '눈', '한파', '미세먼지']",실내,Y,Y,Y,37.52215969,127.0346308
그린스마트쉼터,스마트쉼터,,강남구 도산대로 327,05:00:00 ~ 익일 01:00:00,,,,씨네시티.앞(23161)버스정류장,,,Y,"['폭염', '비', '눈', '한파', '미세먼지']",실내,Y,Y,Y,37.52311961,127.0375986
그린스마트쉼터,스마트쉼터,,강남구 도산대로 443,05:00:00 ~ 익일 01:00:00,,,,농협앞(23180)버스정류장,,,Y,"['폭염', '비', '눈', '한파', '미세먼지']",실내,Y,Y,Y,37.52416149,127.044452
그린스마트쉼터,스마트쉼터,,강남구 도산대로 513,05:00:00 ~ 익일 01:00:00,,,,청담동주민센터(23166)버스정류장,,,Y,"['폭염', '비', '눈', '한파', '미세먼지']",실내,Y,Y,Y,37.52479416,127.0494715
그린스마트쉼터,스마트쉼터,,강남구 도산대로 528,05:00:00 ~ 익일 01:00:00,,,,청담동주민센터(23167)버스정류장,,,Y,"['폭염', '비', '눈', '한파', '미세먼지']",실내,Y,Y,Y,,
그린스마트쉼터,스마트쉼터,,강남구 도산대로 442,05:00:00 ~ 익일 01:00:00,,,,차병원차움(23185)버스정류장,,,Y,"['폭염', '비', '눈', '한파', '미세먼지']",실내,Y,Y,Y,37.52331116,127.044119
그린스마트쉼터,스마트쉼터,,강남구 도산대로 330,05:00:00 ~ 익일 01:00:00,,,,영동119.안전센터(23126)버스정류장,,,Y,"['폭염', '비', '눈', '한파', '미세먼지']",실내,Y,Y,Y,37.52243874,127.0381161
그린스마트쉼터,스마트쉼터,,강남구 도산대로 306,05:00:00 ~ 익일 01:00:00,,,,제일은행.호림아트센터앞(23125)버스정류장,,,Y,"['폭염', '비', '눈', '한파', '미세먼지']",실내,Y,Y,Y,37.52144386,127.0348706
그린스마트쉼터,스마트쉼터,,강남구 도산대로 218,05:00:00 ~ 익일 01:00:00,,,,언북중학교입구(23124)버스정류장,,,Y,"['폭염', '비', '눈', '한파', '미세먼지']",실내,Y,Y,Y,37.52017493,127.0308509
그린스마트쉼터,스마트쉼터,,강남구 도산대로 160,05:00:00 ~ 익일 01:00:00,,,,신사동고개(23112)버스정류장,,,Y,"['폭염', '비', '눈', '한파', '미세먼지']",실내,Y,Y,Y,,
그린스마트쉼터,스마트쉼터,,강남구 도산대로 120,05:00:00 ~ 익일 01:00:00,,,,신사역1번출구(23111)버스정류장,,,Y,"['폭염', '비', '눈', '한파', '미세먼지']",실내,Y,Y,Y,37.51673339,127.0218773
그린스마트쉼터,스마트쉼터,,강남구 학동로 108,05:00:00 ~ 익일 01:00:00,,,,영동시장(23117)버스정류장,,,Y,"['폭염', '비', '눈', '한파', '미세먼지']",실내,Y,Y,Y,,
그린스마트쉼터,스마트쉼터,,강남구 학동로 171,05:00:00 ~ 익일 01:00:00,,,,논현동사거리.학동역(23115)버스정류장,,,Y,"['폭염', '비', '눈', '한파', '미세먼지']",실내,Y,Y,Y,37.51404673,127.0295507
그린스마트쉼터,스마트쉼터,,강남구 학동로 308,05:00:00 ~ 익일 01:00:00,,,,세관앞(23134)버스정류장,,,Y,"['폭염', '비', '눈', '한파', '미세먼지']",실내,Y,Y,Y,37.51544488,127.0364112
그린스마트쉼터,스마트쉼터,,강남구 학동로 337,05:00:00 ~ 익일 01:00:00,,,,강남구청역(23128)버스정류장,,,Y,"['폭염', '비', '눈', '한파', '미세먼지']",실내,Y,Y,Y,37.51707186,127.039928
그린스마트쉼터,스마트쉼터,,강남구 학동로 336,05:00:00 ~ 익일 01:00:00,,,,강남구청역(23135)버스정류장,,,Y,"['폭염', '비', '눈', '한파', '미세먼지']",실내,Y,Y,Y,37.51638873,127.039627
그린스마트쉼터,스마트쉼터,,강남구 학동로 426,05:00:00 ~ 익일 01:00:00,,,,강남구청.강남세무서(23206)버스정류장,,,Y,"['폭염', '비', '눈', '한파', '미세먼지']",실내,Y,Y,Y,37.51796816,127.0470598
스마트쉼터,스마트쉼터,, 중랑구 면목로 418,05:00:00 ~ 익일 01:00:00,,,,07-171 면목역 버스정류장,,,Y,"['폭염', '비', '눈', '한파', '미세먼지']",실내,Y,Y,Y,37.58924296,127.0876287
스마트쉼터,스마트쉼터,, 중랑구 면목로 475,05:00:00 ~ 익일 01:00:00,,,,07-167 상봉역 버스정류장,,,Y,"['폭염', '비', '눈', '한파', '미세먼지']",실내,Y,Y,Y,37.59426783,127.0858602
스마트쉼터,스마트쉼터,,중랑구 면목로 327,05:00:00 ~ 익일 01:00:00,,,,07-179 사가정역 버스정류장,,,Y,"['폭염', '비', '눈', '한파', '미세먼지']",실내,Y,Y,Y,,
스마트쉼터,스마트쉼터,,중랑구 사가정로 386,05:00:00 ~ 익일 01:00:00,,,,07-247 사가정역 버스정류장,,,Y,"['폭염', '비', '눈', '한파', '미세먼지']",실내,Y,Y,Y,,
스마트쉘터,스마트쉼터,,도봉구 도봉로 470-1,05:00:00 ~ 익일 01:00:00,,,,시내버스정류소,,,Y,"['폭염', '비', '눈', '한파', '미세먼지']",실내,Y,Y,Y,37.6475529,127.0342735
스마트쉘터,스마트쉼터,,도봉구 방학로 217-1,05:00:00 ~ 익일 01:00:00,,,,시내버스정류소,,,Y,"['폭염', '비', '눈', '한파', '미세먼지']",실내,Y,Y,Y,37.66171916,127.0280348
스마트쉘터,스마트쉼터,,도봉구 도봉로 552,05:00:00 ~ 익일 01:00:00,,,,시내버스정류소,,,Y,"['폭염', '비', '눈', '한파', '미세먼지']",실내,Y,Y,Y,37.65419928,127.0388705
스마트쉘터,스마트쉼터,,도봉구 방학동 726-74,05:00:00 ~ 익일 01:00:00,,,,시내버스정류소,,,Y,"['폭염', '비', '눈', '한파', '미세먼지']",실내,Y,Y,Y,37.66638665,127.0462124
스마트쉘터,스마트쉼터,,도봉구 노해로 133,05:00:00 ~ 익일 01:00:00,,,,시내버스정류소,,,Y,"['폭염', '비', '눈', '한파', '미세먼지']",실내,Y,Y,Y,37.6470763,127.0252578
스마트쉘터,스마트쉼터,,도봉구 도봉동 637-53,05:00:00 ~ 익일 01:00:00,,,,시내버스정류소,,,Y,"['폭염', '비', '눈', '한파', '미세먼지']",실내,Y,Y,Y,37.68023918,127.0471947
스마트쉘터,스마트쉼터,,창천동 31-27(투썸플레이스),05:00:00 ~ 익일 01:00:00,,,,연세로명물거리(13-145),,,Y,"['폭염', '비', '눈', '한파', '미세먼지']",실내,Y,Y,Y,37.55808757,126.937139
스마트쉘터,스마트쉼터,,남가좌동 385(초록마을),05:00:00 ~ 익일 01:00:00,,,,DMC파크뷰자이(13-180),,,Y,"['폭염', '비', '눈', '한파', '미세먼지']",실내,Y,Y,Y,37.57225793,126.9178372
스마트쉘터,스마트쉼터,,남가좌동 381(영진공인중개사),05:00:00 ~ 익일 01:00:00,,,,DMC센트레빌(13-188),,,Y,"['폭염', '비', '눈', '한파', '미세먼지']",실내,Y,Y,Y,37.57616351,126.9157142
스마트쉘터,스마트쉼터,,남가좌동 385(팔각도),05:00:00 ~ 익일 01:00:00,,,,DMC센트레빌(13-189),,,Y,"['폭염', '비', '눈', '한파', '미세먼지']",실내,Y,Y,Y,37.57225793,126.9178372
스마트쉘터,스마트쉼터,,남가좌동 385(sk텔레콤),05:00:00 ~ 익일 01:00:00,,,,DMC파크뷰자이(13-339),,,Y,"['폭염', '비', '눈', '한파', '미세먼지']",실내,Y,Y,Y,37.57225793,126.9178372
스마트쉘터,스마트쉼터,,창천동 18-50(신촌역3번출구),05:00:00 ~ 익일 01:00:00,,,,신촌전철역(13-802),,,Y,"['폭염', '비', '눈', '한파', '미세먼지']",실내,Y,Y,Y,37.55574439,126.9372146
스마트쉼터,스마트쉼터,,서울시 구로구 구로동 2-11,05:00:00 ~ 익일 01:00:00,,,,신도림역 버스정류장(17102) 측면,,,Y,"['폭염', '비', '눈', '한파', '미세먼지']",실내,Y,Y,Y,37.50711952,126.8915814
스마트쉼터,스마트쉼터,,서울시 구로구 부일로 878-1,05:00:00 ~ 익일 01:00:00,,,,온수역 버스정류장(17185) 측면,,,Y,"['폭염', '비', '눈', '한파', '미세먼지']",실내,Y,Y,Y,,
강동형 스마트 에코쉘터,스마트쉼터,,올림픽로566 인근,05:00:00 ~ 익일 01:00:00,,,,강동구청역1번출구.영파여고 버스정류소,,,Y,"['폭염', '비', '눈', '한파', '미세먼지']",실내,Y,Y,Y,37.53210021,127.1214382
강동형 스마트 에코쉘터,스마트쉼터,,천호대로 1033 인근,05:00:00 ~ 익일 01:00:00,,,,천호역5번출구.천호사거리 버스정류소,,,Y,"['폭염', '비', '눈', '한파', '미세먼지']",실내,Y,Y,Y,37.5378954,127.126958
강동형 스마트 에코쉘터,스마트쉼터,,올릭픽로 659 인근,05:00:00 ~ 익일 01:00:00,,,,천호역2번출구.현대백화점 버스정류소,,,Y,"['폭염', '비', '눈', '한파', '미세먼지']",실내,Y,Y,Y,,
강동형 스마트 에코쉘터,스마트쉼터,,고덕로 391 인근,05:00:00 ~ 익일 01:00:00,,,,상일동역4번출구.센트럴푸르지오 버스정류소,,,Y,"['폭염', '비', '눈', '한파', '미세먼지']",실내,Y,Y,Y,37.55722601,127.1689785
강동형 스마트 에코쉘터,스마트쉼터,,동남로 885 인근,05:00:00 ~ 익일 01:00:00,,,,강동아트센터.강동경희대병원 버스정류소,,,Y,"['폭염', '비', '눈', '한파', '미세먼지']",실내,Y,Y,Y,37.55265359,127.155976
강동형 스마트 에코쉘터,스마트쉼터,,고덕로 353 인근,05:00:00 ~ 익일 01:00:00,,,,상일동역1번출구 버스정류소,,,Y,"['폭염', '비', '눈', '한파', '미세먼지']",실내,Y,Y,Y,37.5571351,127.1645103
강동형 스마트 에코쉘터,스마트쉼터,,고덕로 131 인근,05:00:00 ~ 익일 01:00:00,,,,명일초등학교 버스정류소,,,Y,"['폭염', '비', '눈', '한파', '미세먼지']",실내,Y,Y,Y,37.55516675,127.1438388
스마트 안심쉼터,스마트쉼터,,서울시 광진구 구의3동 546-2,05:00:00 ~ 익일 01:00:00,,,,구의어린이공원,,,Y,"['폭염', '비', '눈', '한파', '미세먼지']",실내,Y,Y,Y,37.53696636,127.0946162
스마트 안심쉼터,스마트쉼터,,서울시 광진구 중곡4동 68-19,05:00:00 ~ 익일 01:00:00,,,,긴고랑어린이공원,,,Y,"['폭염', '비', '눈', '한파', '미세먼지']",실내,Y,Y,Y,37.55895259,127.0909738
스마트 안심쉼터,스마트쉼터,,서울시 광진구 구의3동 206-10,05:00:00 ~ 익일 01:00:00,,,,무궁화어린이공원,,,Y,"['폭염', '비', '눈', '한파', '미세먼지']",실내,Y,Y,Y,37.5412689,127.0943932
스마트 안심쉼터,스마트쉼터,,서울시 광진구 구의2동 60-8,05:00:00 ~ 익일 01:00:00,,,,구둘어린이공원,,,Y,"['폭염', '비', '눈', '한파', '미세먼지']",실내,Y,Y,Y,37.54823508,127.0922104
스마트 안심쉼터,스마트쉼터,,서울시 광진구 구의3동 216-5,05:00:00 ~ 익일 01:00:00,,,,개나리어린이공원,,,Y,"['폭염', '비', '눈', '한파', '미세먼지']",실내,Y,Y,Y,37.53803456,127.0923713
스마트 안심쉼터,스마트쉼터,,서울시 광진구 화양동 32-1,05:00:00 ~ 익일 01:00:00,,,,가중나무어린이공원,,,Y,"['폭염', '비', '눈', '한파', '미세먼지']",실내,Y,Y,Y,37.54638415,127.0679013
"스마트쉼터(공사중, LH)",스마트쉼터,,중랑구,05:00:00 ~ 익일 01:00:00,,,,07-333 양원리 버스정류장,,,Y,"['폭염', '비', '눈', '한파', '미세먼지']",실내,Y,Y,Y,37.60654324,127.0928203
스마트쉼터(공사중 LH),스마트쉼터,,중랑구,05:00:00 ~ 익일 01:00:00,,,,07-334 양원리 버스정류장,,,Y,"['폭염', '비', '눈', '한파', '미세먼지']",실내,Y,Y,Y,37.60654324,127.0928203
,,,,,,,,,,,,,,,,,,
,,,,,,,,,,,,,,,,,,
,,,,,,,,,,,,,,,,,,
,,,,,,,,,,,,,,,,,,
,,,,,,,,,,,,,,,,,,
,,,,,,,,,,,,,,,,,,
,,,,,,,,,,,,,,,,,,
,,,,,,,,,,,,,,,,,,
,,,,,,,,,,,,,,,,,,
,,,,,,,,,,,,,,,,,,
