[
  {
    "쉼터명":"스마트셸터",
    "쉼터 종류":"스마트쉼터",
    "쉼터 유형":null,
    "주소":"서울 마포구 동교동 155-55",
    "운영시간":"05:00:00 ~ 익일 01:00:00",
    "휴무일":null,
    "운영시작일":null,
    "운영종료일":null,
    "설치장소":"14-015 홍대입구역(중) 버스정류소",
    "면적":null,
    "이용가능인원":null,
    "냉난방기":"Y",
    "추천날씨":"['폭염', '비', '눈', '한파', '미세먼지']",
    "실내\/외":"실내",
    "Wi-Fi":"Y",
    "충전시설":"Y",
    "공기정화기":"Y",
    "decimalLatitude":37.55637207,
    "decimalLongitude":126.9231257
  },
  {
    "쉼터명":"스마트셸터",
    "쉼터 종류":"스마트쉼터",
    "쉼터 유형":null,
    "주소":"서울 마포구 동교동 155-55",
    "운영시간":"05:00:00 ~ 익일 01:00:00",
    "휴무일":null,
    "운영시작일":null,
    "운영종료일":null,
    "설치장소":"14-016 홍대입구역(중) 버스정류소",
    "면적":null,
    "이용가능인원":null,
    "냉난방기":"Y",
    "추천날씨":"['폭염', '비', '눈', '한파', '미세먼지']",
    "실내\/외":"실내",
    "Wi-Fi":"Y",
    "충전시설":"Y",
    "공기정화기":"Y",
    "decimalLatitude":37.55637207,
    "decimalLongitude":126.9231257
  },
  {
    "쉼터명":"스마트셸터",
    "쉼터 종류":"스마트쉼터",
    "쉼터 유형":null,
    "주소":"서울 마포구 합정동 402",
    "운영시간":"05:00:00 ~ 익일 01:00:00",
    "휴무일":null,
    "운영시작일":null,
    "운영종료일":null,
    "설치장소":"14-011 합정역(중) 버스정류소",
    "면적":null,
    "이용가능인원":null,
    "냉난방기":"Y",
    "추천날씨":"['폭염', '비', '눈', '한파', '미세먼지']",
    "실내\/외":"실내",
    "Wi-Fi":"Y",
    "충전시설":"Y",
    "공기정화기":"Y",
    "decimalLatitude":37.54984665,
    "decimalLongitude":126.9141781
  },
  {
    "쉼터명":"스마트셸터",
    "쉼터 종류":"스마트쉼터",
    "쉼터 유형":null,
    "주소":"서울 마포구 합정동 402",
    "운영시간":"05:00:00 ~ 익일 01:00:00",
    "휴무일":null,
    "운영시작일":null,
    "운영종료일":null,
    "설치장소":"14-012 합정역(중) 버스정류소",
    "면적":null,
    "이용가능인원":null,
    "냉난방기":"Y",
    "추천날씨":"['폭염', '비', '눈', '한파', '미세먼지']",
    "실내\/외":"실내",
    "Wi-Fi":"Y",
    "충전시설":"Y",
    "공기정화기":"Y",
    "decimalLatitude":37.54984665,
    "decimalLongitude":126.9141781
  },
  {
    "쉼터명":"스마트셸터",
    "쉼터 종류":"스마트쉼터",
    "쉼터 유형":null,
    "주소":"서울 중구 남대문로5가 84-15",
    "운영시간":"05:00:00 ~ 익일 01:00:00",
    "휴무일":null,
    "운영시작일":null,
    "운영종료일":null,
    "설치장소":"02-008 숭례문(중) 버스정류소",
    "면적":null,
    "이용가능인원":null,
    "냉난방기":"Y",
    "추천날씨":"['폭염', '비', '눈', '한파', '미세먼지']",
    "실내\/외":"실내",
    "Wi-Fi":"Y",
    "충전시설":"Y",
    "공기정화기":"Y",
    "decimalLatitude":37.557467,
    "decimalLongitude":126.9729842
  },
  {
    "쉼터명":"스마트셸터",
    "쉼터 종류":"스마트쉼터",
    "쉼터 유형":null,
    "주소":"서울 광진구 화양동 4-15",
    "운영시간":"05:00:00 ~ 익일 01:00:00",
    "휴무일":null,
    "운영시작일":null,
    "운영종료일":null,
    "설치장소":"05-232 건대입구역사거리.건대병원 버스정류소",
    "면적":null,
    "이용가능인원":null,
    "냉난방기":"Y",
    "추천날씨":"['폭염', '비', '눈', '한파', '미세먼지']",
    "실내\/외":"실내",
    "Wi-Fi":"Y",
    "충전시설":"Y",
    "공기정화기":"Y",
    "decimalLatitude":37.54073881,
    "decimalLongitude":127.071187
  },
  {
    "쉼터명":"스마트셸터",
    "쉼터 종류":"스마트쉼터",
    "쉼터 유형":null,
    "주소":"서울 강서구 마곡동 730-314",
    "운영시간":"05:00:00 ~ 익일 01:00:00",
    "휴무일":null,
    "운영시작일":null,
    "운영종료일":null,
    "설치장소":"16-023 강서세무서(중) 버스정류소",
    "면적":null,
    "이용가능인원":null,
    "냉난방기":"Y",
    "추천날씨":"['폭염', '비', '눈', '한파', '미세먼지']",
    "실내\/외":"실내",
    "Wi-Fi":"Y",
    "충전시설":"Y",
    "공기정화기":"Y",
    "decimalLatitude":37.56015346,
    "decimalLongitude":126.821424
  },
  {
    "쉼터명":"스마트셸터",
    "쉼터 종류":"스마트쉼터",
    "쉼터 유형":null,
    "주소":"서울 강서구 마곡동 730-314",
    "운영시간":"05:00:00 ~ 익일 01:00:00",
    "휴무일":null,
    "운영시작일":null,
    "운영종료일":null,
    "설치장소":"16-024 강서세무서(중) 버스정류소",
    "면적":null,
    "이용가능인원":null,
    "냉난방기":"Y",
    "추천날씨":"['폭염', '비', '눈', '한파', '미세먼지']",
    "실내\/외":"실내",
    "Wi-Fi":"Y",
    "충전시설":"Y",
    "공기정화기":"Y",
    "decimalLatitude":37.56015346,
    "decimalLongitude":126.821424
  },
  {
    "쉼터명":"스마트셸터",
    "쉼터 종류":"스마트쉼터",
    "쉼터 유형":null,
    "주소":"서울 은평구 진관동 산 100-25",
    "운영시간":"05:00:00 ~ 익일 01:00:00",
    "휴무일":null,
    "운영시작일":null,
    "운영종료일":null,
    "설치장소":"12-111 구파발역2번출구 버스정류소",
    "면적":null,
    "이용가능인원":null,
    "냉난방기":"Y",
    "추천날씨":"['폭염', '비', '눈', '한파', '미세먼지']",
    "실내\/외":"실내",
    "Wi-Fi":"Y",
    "충전시설":"Y",
    "공기정화기":"Y",
    "decimalLatitude":37.63674993,
    "decimalLongitude":126.9189395
  },
  {
    "쉼터명":"스마트셸터",
    "쉼터 종류":"스마트쉼터",
    "쉼터 유형":null,
    "주소":"서울 서대문구 현저동 900",
    "운영시간":"05:00:00 ~ 익일 01:00:00",
    "휴무일":null,
    "운영시작일":null,
    "운영종료일":null,
    "설치장소":"13-270 독립문공원.극동아파트 버스정류소",
    "면적":null,
    "이용가능인원":null,
    "냉난방기":"Y",
    "추천날씨":"['폭염', '비', '눈', '한파', '미세먼지']",
    "실내\/외":"실내",
    "Wi-Fi":"Y",
    "충전시설":"Y",
    "공기정화기":"Y",
    "decimalLatitude":37.57185357,
    "decimalLongitude":126.9594508
  },
  {
    "쉼터명":"스마트셸터",
    "쉼터 종류":"스마트쉼터",
    "쉼터 유형":null,
    "주소":"서울 강동구 성내동 5-19",
    "운영시간":"05:00:00 ~ 익일 01:00:00",
    "휴무일":null,
    "운영시작일":null,
    "운영종료일":null,
    "설치장소":"25-013 천호역(중) 버스정류소",
    "면적":null,
    "이용가능인원":null,
    "냉난방기":"Y",
    "추천날씨":"['폭염', '비', '눈', '한파', '미세먼지']",
    "실내\/외":"실내",
    "Wi-Fi":"Y",
    "충전시설":"Y",
    "공기정화기":"Y",
    "decimalLatitude":37.53743591,
    "decimalLongitude":127.1273599
  },
  {
    "쉼터명":"스마트셸터",
    "쉼터 종류":"스마트쉼터",
    "쉼터 유형":null,
    "주소":"서울 강동구 성내동 62-1",
    "운영시간":"05:00:00 ~ 익일 01:00:00",
    "휴무일":null,
    "운영시작일":null,
    "운영종료일":null,
    "설치장소":"25-014 천호역(중) 버스정류소",
    "면적":null,
    "이용가능인원":null,
    "냉난방기":"Y",
    "추천날씨":"['폭염', '비', '눈', '한파', '미세먼지']",
    "실내\/외":"실내",
    "Wi-Fi":"Y",
    "충전시설":"Y",
    "공기정화기":"Y",
    "decimalLatitude":37.5348353,
    "decimalLongitude":127.1221279
  },
  {
    "쉼터명":"스마트셸터",
    "쉼터 종류":"스마트쉼터",
    "쉼터 유형":null,
    "주소":"서울 송파구 방이동 95-3",
    "운영시간":"05:00:00 ~ 익일 01:00:00",
    "휴무일":null,
    "운영시작일":null,
    "운영종료일":null,
    "설치장소":"24-136 송파구청.방이맛골 버스정류소",
    "면적":null,
    "이용가능인원":null,
    "냉난방기":"Y",
    "추천날씨":"['폭염', '비', '눈', '한파', '미세먼지']",
    "실내\/외":"실내",
    "Wi-Fi":"Y",
    "충전시설":"Y",
    "공기정화기":"Y",
    "decimalLatitude":37.51358608,
    "decimalLongitude":127.1075626
  },
  {
    "쉼터명":"중구형 스마트쉼터",
    "쉼터 종류":"스마트쉼터",
    "쉼터 유형":null,
    "주소":"신당동 369-2",
    "운영시간":"05:00:00 ~ 익일 01:00:00",
    "휴무일":null,
    "운영시작일":null,
    "운영종료일":null,
    "설치장소":"약수역7번출구·약수동주민센터 버스정류장(02-196)",
    "면적":null,
    "이용가능인원":null,
    "냉난방기":"Y",
    "추천날씨":"['폭염', '비', '눈', '한파', '미세먼지']",
    "실내\/외":"실내",
    "Wi-Fi":"Y",
    "충전시설":"Y",
    "공기정화기":"Y",
    "decimalLatitude":37.55506287,
    "decimalLongitude":127.0105991
  },
  {
    "쉼터명":"중구형 스마트쉼터",
    "쉼터 종류":"스마트쉼터",
    "쉼터 유형":null,
    "주소":"남대문로2가 8-2",
    "운영시간":"05:00:00 ~ 익일 01:00:00",
    "휴무일":null,
    "운영시작일":null,
    "운영종료일":null,
    "설치장소":"명동입구 버스정류장(02-253)",
    "면적":null,
    "이용가능인원":null,
    "냉난방기":"Y",
    "추천날씨":"['폭염', '비', '눈', '한파', '미세먼지']",
    "실내\/외":"실내",
    "Wi-Fi":"Y",
    "충전시설":"Y",
    "공기정화기":"Y",
    "decimalLatitude":37.56466976,
    "decimalLongitude":126.9825991
  },
  {
    "쉼터명":"중구형 스마트쉼터",
    "쉼터 종류":"스마트쉼터",
    "쉼터 유형":null,
    "주소":"신당동 369-2",
    "운영시간":"05:00:00 ~ 익일 01:00:00",
    "휴무일":null,
    "운영시작일":null,
    "운영종료일":null,
    "설치장소":"약수역8번출구·신당사회복지관\n버스정류장(02-195)",
    "면적":null,
    "이용가능인원":null,
    "냉난방기":"Y",
    "추천날씨":"['폭염', '비', '눈', '한파', '미세먼지']",
    "실내\/외":"실내",
    "Wi-Fi":"Y",
    "충전시설":"Y",
    "공기정화기":"Y",
    "decimalLatitude":37.55506287,
    "decimalLongitude":127.0105991
  },
  {
    "쉼터명":"중구형 스마트쉼터",
    "쉼터 종류":"스마트쉼터",
    "쉼터 유형":null,
    "주소":"만리동2가 33-1",
    "운영시간":"05:00:00 ~ 익일 01:00:00",
    "휴무일":null,
    "운영시작일":null,
    "운영종료일":null,
    "설치장소":"손기정체육공원입구\n버스정류장(02-102)",
    "면적":null,
    "이용가능인원":null,
    "냉난방기":"Y",
    "추천날씨":"['폭염', '비', '눈', '한파', '미세먼지']",
    "실내\/외":"실내",
    "Wi-Fi":"Y",
    "충전시설":"Y",
    "공기정화기":"Y",
    "decimalLatitude":37.55430189,
    "decimalLongitude":126.966009
  },
  {
    "쉼터명":"중구형 스마트쉼터",
    "쉼터 종류":"스마트쉼터",
    "쉼터 유형":null,
    "주소":"신당동 산24-110",
    "운영시간":"05:00:00 ~ 익일 01:00:00",
    "휴무일":null,
    "운영시작일":null,
    "운영종료일":null,
    "설치장소":"버티고개\n버스정류장(02-237)",
    "면적":null,
    "이용가능인원":null,
    "냉난방기":"Y",
    "추천날씨":"['폭염', '비', '눈', '한파', '미세먼지']",
    "실내\/외":"실내",
    "Wi-Fi":"Y",
    "충전시설":"Y",
    "공기정화기":"Y",
    "decimalLatitude":37.54772032,
    "decimalLongitude":127.0062349
  },
  {
    "쉼터명":"중구형 스마트쉼터",
    "쉼터 종류":"스마트쉼터",
    "쉼터 유형":null,
    "주소":"신당동 433",
    "운영시간":"05:00:00 ~ 익일 01:00:00",
    "휴무일":null,
    "운영시작일":null,
    "운영종료일":null,
    "설치장소":"신당파인힐하나유보라\n버스정류장(02-252)",
    "면적":null,
    "이용가능인원":null,
    "냉난방기":"Y",
    "추천날씨":"['폭염', '비', '눈', '한파', '미세먼지']",
    "실내\/외":"실내",
    "Wi-Fi":"Y",
    "충전시설":"Y",
    "공기정화기":"Y",
    "decimalLatitude":37.56498302,
    "decimalLongitude":127.0250064
  },
  {
    "쉼터명":"중구형 스마트쉼터",
    "쉼터 종류":"스마트쉼터",
    "쉼터 유형":null,
    "주소":"황학동 761",
    "운영시간":"05:00:00 ~ 익일 01:00:00",
    "휴무일":null,
    "운영시작일":null,
    "운영종료일":null,
    "설치장소":"황학동롯데캐슬\n버스정류장(02-277)",
    "면적":null,
    "이용가능인원":null,
    "냉난방기":"Y",
    "추천날씨":"['폭염', '비', '눈', '한파', '미세먼지']",
    "실내\/외":"실내",
    "Wi-Fi":"Y",
    "충전시설":"Y",
    "공기정화기":"Y",
    "decimalLatitude":37.57078695,
    "decimalLongitude":127.0233354
  },
  {
    "쉼터명":"중구형 스마트쉼터",
    "쉼터 종류":"스마트쉼터",
    "쉼터 유형":null,
    "주소":"서소문동 136-1",
    "운영시간":"05:00:00 ~ 익일 01:00:00",
    "휴무일":null,
    "운영시작일":null,
    "운영종료일":null,
    "설치장소":"서소문\n버스정류장(02-133)",
    "면적":null,
    "이용가능인원":null,
    "냉난방기":"Y",
    "추천날씨":"['폭염', '비', '눈', '한파', '미세먼지']",
    "실내\/외":"실내",
    "Wi-Fi":"Y",
    "충전시설":"Y",
    "공기정화기":"Y",
    "decimalLatitude":37.56310084,
    "decimalLongitude":126.9745919
  },
  {
    "쉼터명":"중구형 스마트쉼터",
    "쉼터 종류":"스마트쉼터",
    "쉼터 유형":null,
    "주소":"필동1가 13-2",
    "운영시간":"05:00:00 ~ 익일 01:00:00",
    "휴무일":null,
    "운영시작일":null,
    "운영종료일":null,
    "설치장소":"퇴계로3가·한옥마을·한국의집\n버스정류장(02-151)",
    "면적":null,
    "이용가능인원":null,
    "냉난방기":"Y",
    "추천날씨":"['폭염', '비', '눈', '한파', '미세먼지']",
    "실내\/외":"실내",
    "Wi-Fi":"Y",
    "충전시설":"Y",
    "공기정화기":"Y",
    "decimalLatitude":37.56097741,
    "decimalLongitude":126.9920611
  },
  {
    "쉼터명":"중구형 스마트쉼터",
    "쉼터 종류":"스마트쉼터",
    "쉼터 유형":null,
    "주소":"을지로2가 193-2",
    "운영시간":"05:00:00 ~ 익일 01:00:00",
    "휴무일":null,
    "운영시작일":null,
    "운영종료일":null,
    "설치장소":"을지로입구·로얄호텔\n버스정류장(02-156)",
    "면적":null,
    "이용가능인원":null,
    "냉난방기":"Y",
    "추천날씨":"['폭염', '비', '눈', '한파', '미세먼지']",
    "실내\/외":"실내",
    "Wi-Fi":"Y",
    "충전시설":"Y",
    "공기정화기":"Y",
    "decimalLatitude":37.5660538,
    "decimalLongitude":126.9854266
  },
  {
    "쉼터명":"중구형 스마트쉼터",
    "쉼터 종류":"스마트쉼터",
    "쉼터 유형":null,
    "주소":"태평로1가 63-17",
    "운영시간":"05:00:00 ~ 익일 01:00:00",
    "휴무일":null,
    "운영시작일":null,
    "운영종료일":null,
    "설치장소":"서울신문사\n버스정류장(02-137)",
    "면적":null,
    "이용가능인원":null,
    "냉난방기":"Y",
    "추천날씨":"['폭염', '비', '눈', '한파', '미세먼지']",
    "실내\/외":"실내",
    "Wi-Fi":"Y",
    "충전시설":"Y",
    "공기정화기":"Y",
    "decimalLatitude":37.56886639,
    "decimalLongitude":126.9771699
  },
  {
    "쉼터명":"중구형 스마트쉼터",
    "쉼터 종류":"스마트쉼터",
    "쉼터 유형":null,
    "주소":"을지로1가 100-1",
    "운영시간":"05:00:00 ~ 익일 01:00:00",
    "휴무일":null,
    "운영시작일":null,
    "운영종료일":null,
    "설치장소":"을지로입구·시청입구\n버스정류장(02-157)",
    "면적":null,
    "이용가능인원":null,
    "냉난방기":"Y",
    "추천날씨":"['폭염', '비', '눈', '한파', '미세먼지']",
    "실내\/외":"실내",
    "Wi-Fi":"Y",
    "충전시설":"Y",
    "공기정화기":"Y",
    "decimalLatitude":37.56605956,
    "decimalLongitude":126.9820843
  },
  {
    "쉼터명":"중구형 스마트쉼터",
    "쉼터 종류":"스마트쉼터",
    "쉼터 유형":null,
    "주소":"을지로4가 267-1",
    "운영시간":"05:00:00 ~ 익일 01:00:00",
    "휴무일":null,
    "운영시작일":null,
    "운영종료일":null,
    "설치장소":"을지로4가·베스트웨스턴국도\n버스정류장(02-163)",
    "면적":null,
    "이용가능인원":null,
    "냉난방기":"Y",
    "추천날씨":"['폭염', '비', '눈', '한파', '미세먼지']",
    "실내\/외":"실내",
    "Wi-Fi":"Y",
    "충전시설":"Y",
    "공기정화기":"Y",
    "decimalLatitude":37.5665283,
    "decimalLongitude":126.9965433
  },
  {
    "쉼터명":"중구형 스마트쉼터",
    "쉼터 종류":"스마트쉼터",
    "쉼터 유형":null,
    "주소":"을지로1가 194-2",
    "운영시간":"05:00:00 ~ 익일 01:00:00",
    "휴무일":null,
    "운영시작일":null,
    "운영종료일":null,
    "설치장소":"서울광장\n버스정류장(02-641)",
    "면적":null,
    "이용가능인원":null,
    "냉난방기":"Y",
    "추천날씨":"['폭염', '비', '눈', '한파', '미세먼지']",
    "실내\/외":"실내",
    "Wi-Fi":"Y",
    "충전시설":"Y",
    "공기정화기":"Y",
    "decimalLatitude":37.56529391,
    "decimalLongitude":126.9789267
  },
  {
    "쉼터명":"중구형 스마트쉼터",
    "쉼터 종류":"스마트쉼터",
    "쉼터 유형":null,
    "주소":"태평로2가 113-1",
    "운영시간":"05:00:00 ~ 익일 01:00:00",
    "휴무일":null,
    "운영시작일":null,
    "운영종료일":null,
    "설치장소":"시청앞\n버스정류장(02-128)",
    "면적":null,
    "이용가능인원":null,
    "냉난방기":"Y",
    "추천날씨":"['폭염', '비', '눈', '한파', '미세먼지']",
    "실내\/외":"실내",
    "Wi-Fi":"Y",
    "충전시설":"Y",
    "공기정화기":"Y",
    "decimalLatitude":37.56299305,
    "decimalLongitude":126.9765924
  },
  {
    "쉼터명":"중구형 스마트쉼터",
    "쉼터 종류":"스마트쉼터",
    "쉼터 유형":null,
    "주소":"을지로6가 18-20",
    "운영시간":"05:00:00 ~ 익일 01:00:00",
    "휴무일":null,
    "운영시작일":null,
    "운영종료일":null,
    "설치장소":"동대문역사문화공원\n버스정류장(02-173)",
    "면적":null,
    "이용가능인원":null,
    "냉난방기":"Y",
    "추천날씨":"['폭염', '비', '눈', '한파', '미세먼지']",
    "실내\/외":"실내",
    "Wi-Fi":"Y",
    "충전시설":"Y",
    "공기정화기":"Y",
    "decimalLatitude":37.5663304,
    "decimalLongitude":127.0066669
  },
  {
    "쉼터명":"중구형 스마트쉼터",
    "쉼터 종류":"스마트쉼터",
    "쉼터 유형":null,
    "주소":"을지로7가 143",
    "운영시간":"05:00:00 ~ 익일 01:00:00",
    "휴무일":null,
    "운영시작일":null,
    "운영종료일":null,
    "설치장소":"동대문역사문화공원\n버스정류장(02-174)",
    "면적":null,
    "이용가능인원":null,
    "냉난방기":"Y",
    "추천날씨":"['폭염', '비', '눈', '한파', '미세먼지']",
    "실내\/외":"실내",
    "Wi-Fi":"Y",
    "충전시설":"Y",
    "공기정화기":"Y",
    "decimalLatitude":37.56690059,
    "decimalLongitude":127.009913
  },
  {
    "쉼터명":"중구형 스마트쉼터",
    "쉼터 종류":"스마트쉼터",
    "쉼터 유형":null,
    "주소":"남산동1가 1-1",
    "운영시간":"05:00:00 ~ 익일 01:00:00",
    "휴무일":null,
    "운영시작일":null,
    "운영종료일":null,
    "설치장소":"명동역4번출구 \n버스정류장(02-149)",
    "면적":null,
    "이용가능인원":null,
    "냉난방기":"Y",
    "추천날씨":"['폭염', '비', '눈', '한파', '미세먼지']",
    "실내\/외":"실내",
    "Wi-Fi":"Y",
    "충전시설":"Y",
    "공기정화기":"Y",
    "decimalLatitude":37.56074787,
    "decimalLongitude":126.9850051
  },
  {
    "쉼터명":"스마트쉼터",
    "쉼터 종류":"스마트쉼터",
    "쉼터 유형":null,
    "주소":"신영동 124-1",
    "운영시간":"05:00:00 ~ 익일 01:00:00",
    "휴무일":null,
    "운영시작일":null,
    "운영종료일":null,
    "설치장소":"시내버스정류장 인근",
    "면적":null,
    "이용가능인원":null,
    "냉난방기":"Y",
    "추천날씨":"['폭염', '비', '눈', '한파', '미세먼지']",
    "실내\/외":"실내",
    "Wi-Fi":"Y",
    "충전시설":"Y",
    "공기정화기":"Y",
    "decimalLatitude":37.60245938,
    "decimalLongitude":126.9612874
  },
  {
    "쉼터명":"스마트쉼터",
    "쉼터 종류":"스마트쉼터",
    "쉼터 유형":null,
    "주소":"숭인동 76",
    "운영시간":"05:00:00 ~ 익일 01:00:00",
    "휴무일":null,
    "운영시작일":null,
    "운영종료일":null,
    "설치장소":"시내버스정류장 인근",
    "면적":null,
    "이용가능인원":null,
    "냉난방기":"Y",
    "추천날씨":"['폭염', '비', '눈', '한파', '미세먼지']",
    "실내\/외":"실내",
    "Wi-Fi":"Y",
    "충전시설":"Y",
    "공기정화기":"Y",
    "decimalLatitude":37.57385171,
    "decimalLongitude":127.0161778
  },
  {
    "쉼터명":"스마트 휴 쉼터",
    "쉼터 종류":"스마트쉼터",
    "쉼터 유형":null,
    "주소":"서울시 광진구 아차산로 563",
    "운영시간":"05:00:00 ~ 익일 01:00:00",
    "휴무일":null,
    "운영시작일":null,
    "운영종료일":null,
    "설치장소":"광나루지구대앞 버스정류장",
    "면적":null,
    "이용가능인원":null,
    "냉난방기":"Y",
    "추천날씨":"['폭염', '비', '눈', '한파', '미세먼지']",
    "실내\/외":"실내",
    "Wi-Fi":"Y",
    "충전시설":"Y",
    "공기정화기":"Y",
    "decimalLatitude":37.54413407,
    "decimalLongitude":127.1029306
  },
  {
    "쉼터명":"스마트 휴 쉼터",
    "쉼터 종류":"스마트쉼터",
    "쉼터 유형":null,
    "주소":"서울시 광진구 능동로 90",
    "운영시간":"05:00:00 ~ 익일 01:00:00",
    "휴무일":null,
    "운영시작일":null,
    "운영종료일":null,
    "설치장소":"광진문화예술회관앞 버스정류장",
    "면적":null,
    "이용가능인원":null,
    "냉난방기":"Y",
    "추천날씨":"['폭염', '비', '눈', '한파', '미세먼지']",
    "실내\/외":"실내",
    "Wi-Fi":"Y",
    "충전시설":"Y",
    "공기정화기":"Y",
    "decimalLatitude":37.53836258,
    "decimalLongitude":127.0709218
  },
  {
    "쉼터명":"스마트 휴 쉼터",
    "쉼터 종류":"스마트쉼터",
    "쉼터 유형":null,
    "주소":"서울시 광진구 자양로 117",
    "운영시간":"05:00:00 ~ 익일 01:00:00",
    "휴무일":null,
    "운영시작일":null,
    "운영종료일":null,
    "설치장소":"광진구청앞 버스정류장",
    "면적":null,
    "이용가능인원":null,
    "냉난방기":"Y",
    "추천날씨":"['폭염', '비', '눈', '한파', '미세먼지']",
    "실내\/외":"실내",
    "Wi-Fi":"Y",
    "충전시설":"Y",
    "공기정화기":"Y",
    "decimalLatitude":37.53853161,
    "decimalLongitude":127.0819098
  },
  {
    "쉼터명":"스마트 휴 쉼터",
    "쉼터 종류":"스마트쉼터",
    "쉼터 유형":null,
    "주소":"서울시 광진구 아차산로 411",
    "운영시간":"05:00:00 ~ 익일 01:00:00",
    "휴무일":null,
    "운영시작일":null,
    "운영종료일":null,
    "설치장소":"구의역2번출구앞 버스정류장",
    "면적":null,
    "이용가능인원":null,
    "냉난방기":"Y",
    "추천날씨":"['폭염', '비', '눈', '한파', '미세먼지']",
    "실내\/외":"실내",
    "Wi-Fi":"Y",
    "충전시설":"Y",
    "공기정화기":"Y",
    "decimalLatitude":37.53782997,
    "decimalLongitude":127.0879704
  },
  {
    "쉼터명":"스마트 에코 쉼터",
    "쉼터 종류":"스마트쉼터",
    "쉼터 유형":null,
    "주소":"서울시 성북구 정릉로 367-2",
    "운영시간":"05:00:00 ~ 익일 01:00:00",
    "휴무일":null,
    "운영시작일":null,
    "운영종료일":null,
    "설치장소":"길음뉴타운 10단지 버스정류장",
    "면적":null,
    "이용가능인원":null,
    "냉난방기":"Y",
    "추천날씨":"['폭염', '비', '눈', '한파', '미세먼지']",
    "실내\/외":"실내",
    "Wi-Fi":"Y",
    "충전시설":"Y",
    "공기정화기":"Y",
    "decimalLatitude":37.60227407,
    "decimalLongitude":127.0240657
  },
  {
    "쉼터명":"스마트쉼터",
    "쉼터 종류":"스마트쉼터",
    "쉼터 유형":null,
    "주소":"서울시 강북구 도봉로 329 앞",
    "운영시간":"05:00:00 ~ 익일 01:00:00",
    "휴무일":null,
    "운영시작일":null,
    "운영종료일":null,
    "설치장소":"수유역 6번 출구 앞",
    "면적":null,
    "이용가능인원":null,
    "냉난방기":"Y",
    "추천날씨":"['폭염', '비', '눈', '한파', '미세먼지']",
    "실내\/외":"실내",
    "Wi-Fi":"Y",
    "충전시설":"Y",
    "공기정화기":"Y",
    "decimalLatitude":37.63755319,
    "decimalLongitude":127.0247016
  },
  {
    "쉼터명":"스마트쉼터",
    "쉼터 종류":"스마트쉼터",
    "쉼터 유형":null,
    "주소":"서울시 강북구 도봉로 62 앞",
    "운영시간":"05:00:00 ~ 익일 01:00:00",
    "휴무일":null,
    "운영시작일":null,
    "운영종료일":null,
    "설치장소":"미아사거리역 1번 출구 앞",
    "면적":null,
    "이용가능인원":null,
    "냉난방기":"Y",
    "추천날씨":"['폭염', '비', '눈', '한파', '미세먼지']",
    "실내\/외":"실내",
    "Wi-Fi":"Y",
    "충전시설":"Y",
    "공기정화기":"Y",
    "decimalLatitude":37.61459298,
    "decimalLongitude":127.0305177
  },
  {
    "쉼터명":"스마트마루",
    "쉼터 종류":"스마트쉼터",
    "쉼터 유형":null,
    "주소":"목동 406-21",
    "운영시간":"05:00:00 ~ 익일 01:00:00",
    "휴무일":null,
    "운영시작일":null,
    "운영종료일":null,
    "설치장소":"목동대학학원 버스정류장",
    "면적":null,
    "이용가능인원":null,
    "냉난방기":"Y",
    "추천날씨":"['폭염', '비', '눈', '한파', '미세먼지']",
    "실내\/외":"실내",
    "Wi-Fi":"Y",
    "충전시설":"Y",
    "공기정화기":"Y",
    "decimalLatitude":37.52515319,
    "decimalLongitude":126.8737198
  },
  {
    "쉼터명":"스마트마루",
    "쉼터 종류":"스마트쉼터",
    "쉼터 유형":null,
    "주소":"신월동 502-5",
    "운영시간":"05:00:00 ~ 익일 01:00:00",
    "휴무일":null,
    "운영시작일":null,
    "운영종료일":null,
    "설치장소":"신정네거리 분수광장 인근",
    "면적":null,
    "이용가능인원":null,
    "냉난방기":"Y",
    "추천날씨":"['폭염', '비', '눈', '한파', '미세먼지']",
    "실내\/외":"실내",
    "Wi-Fi":"Y",
    "충전시설":"Y",
    "공기정화기":"Y",
    "decimalLatitude":37.52217448,
    "decimalLongitude":126.8516396
  },
  {
    "쉼터명":"스마트마루",
    "쉼터 종류":"스마트쉼터",
    "쉼터 유형":null,
    "주소":"신월동 545-8",
    "운영시간":"05:00:00 ~ 익일 01:00:00",
    "휴무일":null,
    "운영시작일":null,
    "운영종료일":null,
    "설치장소":"신한은행 신월동 지점 버스정류장",
    "면적":null,
    "이용가능인원":null,
    "냉난방기":"Y",
    "추천날씨":"['폭염', '비', '눈', '한파', '미세먼지']",
    "실내\/외":"실내",
    "Wi-Fi":"Y",
    "충전시설":"Y",
    "공기정화기":"Y",
    "decimalLatitude":37.51821851,
    "decimalLongitude":126.8415565
  },
  {
    "쉼터명":"스마트그린쉼터",
    "쉼터 종류":"스마트쉼터",
    "쉼터 유형":null,
    "주소":"강서구 방화3동 855",
    "운영시간":"05:00:00 ~ 익일 01:00:00",
    "휴무일":null,
    "운영시작일":null,
    "운영종료일":null,
    "설치장소":"방화근린공원",
    "면적":null,
    "이용가능인원":null,
    "냉난방기":"Y",
    "추천날씨":"['폭염', '비', '눈', '한파', '미세먼지']",
    "실내\/외":"실내",
    "Wi-Fi":"Y",
    "충전시설":"Y",
    "공기정화기":"Y",
    "decimalLatitude":37.58087532,
    "decimalLongitude":126.8144643
  },
  {
    "쉼터명":"스마트그린쉼터",
    "쉼터 종류":"스마트쉼터",
    "쉼터 유형":null,
    "주소":"강서구 화곡본동 56-3",
    "운영시간":"05:00:00 ~ 익일 01:00:00",
    "휴무일":null,
    "운영시작일":null,
    "운영종료일":null,
    "설치장소":"한글어린이공원",
    "면적":null,
    "이용가능인원":null,
    "냉난방기":"Y",
    "추천날씨":"['폭염', '비', '눈', '한파', '미세먼지']",
    "실내\/외":"실내",
    "Wi-Fi":"Y",
    "충전시설":"Y",
    "공기정화기":"Y",
    "decimalLatitude":37.53852334,
    "decimalLongitude":126.8505119
  },
  {
    "쉼터명":"스마트그린쉼터",
    "쉼터 종류":"스마트쉼터",
    "쉼터 유형":null,
    "주소":"강서구 강서로 463",
    "운영시간":"05:00:00 ~ 익일 01:00:00",
    "휴무일":null,
    "운영시작일":null,
    "운영종료일":null,
    "설치장소":"양천향교역 7번 출구",
    "면적":null,
    "이용가능인원":null,
    "냉난방기":"Y",
    "추천날씨":"['폭염', '비', '눈', '한파', '미세먼지']",
    "실내\/외":"실내",
    "Wi-Fi":"Y",
    "충전시설":"Y",
    "공기정화기":"Y",
    "decimalLatitude":37.56694636,
    "decimalLongitude":126.8404463
  },
  {
    "쉼터명":"스마트안전쉼터",
    "쉼터 종류":"스마트쉼터",
    "쉼터 유형":null,
    "주소":"강서구 우장산로 72-1",
    "운영시간":"05:00:00 ~ 익일 01:00:00",
    "휴무일":null,
    "운영시작일":null,
    "운영종료일":null,
    "설치장소":"우장산근린공원",
    "면적":null,
    "이용가능인원":null,
    "냉난방기":"Y",
    "추천날씨":"['폭염', '비', '눈', '한파', '미세먼지']",
    "실내\/외":"실내",
    "Wi-Fi":"Y",
    "충전시설":"Y",
    "공기정화기":"Y",
    "decimalLatitude":37.55266616,
    "decimalLongitude":126.8434443
  },
  {
    "쉼터명":"스마트그린쉼터",
    "쉼터 종류":"스마트쉼터",
    "쉼터 유형":null,
    "주소":"강서구 화곡동 1074-12",
    "운영시간":"05:00:00 ~ 익일 01:00:00",
    "휴무일":null,
    "운영시작일":null,
    "운영종료일":null,
    "설치장소":"화곡역 6번 출구",
    "면적":null,
    "이용가능인원":null,
    "냉난방기":"Y",
    "추천날씨":"['폭염', '비', '눈', '한파', '미세먼지']",
    "실내\/외":"실내",
    "Wi-Fi":"Y",
    "충전시설":"Y",
    "공기정화기":"Y",
    "decimalLatitude":37.54093373,
    "decimalLongitude":126.8389594
  },
  {
    "쉼터명":"스마트그린쉼터",
    "쉼터 종류":"스마트쉼터",
    "쉼터 유형":null,
    "주소":"강서구 화곡동 1089-3",
    "운영시간":"05:00:00 ~ 익일 01:00:00",
    "휴무일":null,
    "운영시작일":null,
    "운영종료일":null,
    "설치장소":"우장산역 1번 출구",
    "면적":null,
    "이용가능인원":null,
    "냉난방기":"Y",
    "추천날씨":"['폭염', '비', '눈', '한파', '미세먼지']",
    "실내\/외":"실내",
    "Wi-Fi":"Y",
    "충전시설":"Y",
    "공기정화기":"Y",
    "decimalLatitude":37.54922518,
    "decimalLongitude":126.836414
  },
  {
    "쉼터명":"스마트그린쉼터",
    "쉼터 종류":"스마트쉼터",
    "쉼터 유형":null,
    "주소":"강서구 마곡동 812",
    "운영시간":"05:00:00 ~ 익일 01:00:00",
    "휴무일":null,
    "운영시작일":null,
    "운영종료일":null,
    "설치장소":"마곡나루역 4번 출구",
    "면적":null,
    "이용가능인원":null,
    "냉난방기":"Y",
    "추천날씨":"['폭염', '비', '눈', '한파', '미세먼지']",
    "실내\/외":"실내",
    "Wi-Fi":"Y",
    "충전시설":"Y",
    "공기정화기":"Y",
    "decimalLatitude":37.56817212,
    "decimalLongitude":126.8329869
  },
  {
    "쉼터명":"스마트그린쉼터",
    "쉼터 종류":"스마트쉼터",
    "쉼터 유형":null,
    "주소":"강서구 마곡동 727-1428",
    "운영시간":"05:00:00 ~ 익일 01:00:00",
    "휴무일":null,
    "운영시작일":null,
    "운영종료일":null,
    "설치장소":"마곡역 2번 출구",
    "면적":null,
    "이용가능인원":null,
    "냉난방기":"Y",
    "추천날씨":"['폭염', '비', '눈', '한파', '미세먼지']",
    "실내\/외":"실내",
    "Wi-Fi":"Y",
    "충전시설":"Y",
    "공기정화기":"Y",
    "decimalLatitude":37.55996812,
    "decimalLongitude":126.8255826
  },
  {
    "쉼터명":"스마트쉼터",
    "쉼터 종류":"스마트쉼터",
    "쉼터 유형":null,
    "주소":"서울특별시 동작구 상도로 365-2",
    "운영시간":"05:00:00 ~ 익일 01:00:00",
    "휴무일":null,
    "운영시작일":null,
    "운영종료일":null,
    "설치장소":"숭실대입구역(20-166)",
    "면적":null,
    "이용가능인원":null,
    "냉난방기":"Y",
    "추천날씨":"['폭염', '비', '눈', '한파', '미세먼지']",
    "실내\/외":"실내",
    "Wi-Fi":"Y",
    "충전시설":"Y",
    "공기정화기":"Y",
    "decimalLatitude":37.49628585,
    "decimalLongitude":126.9538852
  },
  {
    "쉼터명":"스마트쉼터",
    "쉼터 종류":"스마트쉼터",
    "쉼터 유형":null,
    "주소":"서울특별시 동작구사당로218",
    "운영시간":"05:00:00 ~ 익일 01:00:00",
    "휴무일":null,
    "운영시작일":null,
    "운영종료일":null,
    "설치장소":"남성역(20-178)",
    "면적":null,
    "이용가능인원":null,
    "냉난방기":"Y",
    "추천날씨":"['폭염', '비', '눈', '한파', '미세먼지']",
    "실내\/외":"실내",
    "Wi-Fi":"Y",
    "충전시설":"Y",
    "공기정화기":"Y",
    "decimalLatitude":37.48444339,
    "decimalLongitude":126.9717061
  },
  {
    "쉼터명":"스마트쉼터",
    "쉼터 종류":"스마트쉼터",
    "쉼터 유형":null,
    "주소":" 서울특별시 동작구 만양로 6",
    "운영시간":"05:00:00 ~ 익일 01:00:00",
    "휴무일":null,
    "운영시작일":null,
    "운영종료일":null,
    "설치장소":"상도노빌리티역(20-155)",
    "면적":null,
    "이용가능인원":null,
    "냉난방기":"Y",
    "추천날씨":"['폭염', '비', '눈', '한파', '미세먼지']",
    "실내\/외":"실내",
    "Wi-Fi":"Y",
    "충전시설":"Y",
    "공기정화기":"Y",
    "decimalLatitude":37.5049819,
    "decimalLongitude":126.9467885
  },
  {
    "쉼터명":"스마트쉼터",
    "쉼터 종류":"스마트쉼터",
    "쉼터 유형":null,
    "주소":"서울특별시 동작구 상도동 329-2",
    "운영시간":"05:00:00 ~ 익일 01:00:00",
    "휴무일":null,
    "운영시작일":null,
    "운영종료일":null,
    "설치장소":"성대시장(20-147)",
    "면적":null,
    "이용가능인원":null,
    "냉난방기":"Y",
    "추천날씨":"['폭염', '비', '눈', '한파', '미세먼지']",
    "실내\/외":"실내",
    "Wi-Fi":"Y",
    "충전시설":"Y",
    "공기정화기":"Y",
    "decimalLatitude":37.50028513,
    "decimalLongitude":126.9313963
  },
  {
    "쉼터명":"스마트쉼터",
    "쉼터 종류":"스마트쉼터",
    "쉼터 유형":null,
    "주소":"서울특별시 동작구 보라매로 95-2",
    "운영시간":"05:00:00 ~ 익일 01:00:00",
    "휴무일":null,
    "운영시작일":null,
    "운영종료일":null,
    "설치장소":"신대방삼거리(20-186)",
    "면적":null,
    "이용가능인원":null,
    "냉난방기":"Y",
    "추천날씨":"['폭염', '비', '눈', '한파', '미세먼지']",
    "실내\/외":"실내",
    "Wi-Fi":"Y",
    "충전시설":"Y",
    "공기정화기":"Y",
    "decimalLatitude":37.49793187,
    "decimalLongitude":126.9279051
  },
  {
    "쉼터명":"스마트쉼터",
    "쉼터 종류":"스마트쉼터",
    "쉼터 유형":null,
    "주소":"서울특별시 동작구 사당동 산 31-37번지",
    "운영시간":"05:00:00 ~ 익일 01:00:00",
    "휴무일":null,
    "운영시작일":null,
    "운영종료일":null,
    "설치장소":"사당롯데캐슬골드포레정류소(20-213)",
    "면적":null,
    "이용가능인원":null,
    "냉난방기":"Y",
    "추천날씨":"['폭염', '비', '눈', '한파', '미세먼지']",
    "실내\/외":"실내",
    "Wi-Fi":"Y",
    "충전시설":"Y",
    "공기정화기":"Y",
    "decimalLatitude":37.49224603,
    "decimalLongitude":126.9634785
  },
  {
    "쉼터명":"스마트쉼터",
    "쉼터 종류":"스마트쉼터",
    "쉼터 유형":null,
    "주소":"서울 관악구 남부순환로 1640",
    "운영시간":"05:00:00 ~ 익일 01:00:00",
    "휴무일":null,
    "운영시작일":null,
    "운영종료일":null,
    "설치장소":"시내버스정류장",
    "면적":null,
    "이용가능인원":null,
    "냉난방기":"Y",
    "추천날씨":"['폭염', '비', '눈', '한파', '미세먼지']",
    "실내\/외":"실내",
    "Wi-Fi":"Y",
    "충전시설":"Y",
    "공기정화기":"Y",
    "decimalLatitude":37.48430771,
    "decimalLongitude":126.9328955
  },
  {
    "쉼터명":"스마트쉼터",
    "쉼터 종류":"스마트쉼터",
    "쉼터 유형":null,
    "주소":"서울 관악구 낙성대로 77",
    "운영시간":"05:00:00 ~ 익일 01:00:00",
    "휴무일":null,
    "운영시작일":null,
    "운영종료일":null,
    "설치장소":"시내버스정류장",
    "면적":null,
    "이용가능인원":null,
    "냉난방기":"Y",
    "추천날씨":"['폭염', '비', '눈', '한파', '미세먼지']",
    "실내\/외":"실내",
    "Wi-Fi":"Y",
    "충전시설":"Y",
    "공기정화기":"Y",
    "decimalLatitude":37.47197208,
    "decimalLongitude":126.959371
  },
  {
    "쉼터명":"스마트쉼터",
    "쉼터 종류":"스마트쉼터",
    "쉼터 유형":null,
    "주소":"서울 관악구 관악로 1",
    "운영시간":"05:00:00 ~ 익일 01:00:00",
    "휴무일":null,
    "운영시작일":null,
    "운영종료일":null,
    "설치장소":"시내버스정류장",
    "면적":null,
    "이용가능인원":null,
    "냉난방기":"Y",
    "추천날씨":"['폭염', '비', '눈', '한파', '미세먼지']",
    "실내\/외":"실내",
    "Wi-Fi":"Y",
    "충전시설":"Y",
    "공기정화기":"Y",
    "decimalLatitude":37.46628727,
    "decimalLongitude":126.9481564
  },
  {
    "쉼터명":"스마트쉼터",
    "쉼터 종류":"스마트쉼터",
    "쉼터 유형":null,
    "주소":"노원구 상계동 694-1",
    "운영시간":"05:00:00 ~ 익일 01:00:00",
    "휴무일":null,
    "운영시작일":null,
    "운영종료일":null,
    "설치장소":"상계주공10단지 버스정류소",
    "면적":null,
    "이용가능인원":null,
    "냉난방기":"Y",
    "추천날씨":"['폭염', '비', '눈', '한파', '미세먼지']",
    "실내\/외":"실내",
    "Wi-Fi":"Y",
    "충전시설":"Y",
    "공기정화기":"Y",
    "decimalLatitude":37.66006128,
    "decimalLongitude":127.0590147
  },
  {
    "쉼터명":"스마트쉼터",
    "쉼터 종류":"스마트쉼터",
    "쉼터 유형":null,
    "주소":"서울 동대문구 전농동 620-67",
    "운영시간":"05:00:00 ~ 익일 01:00:00",
    "휴무일":null,
    "운영시작일":null,
    "운영종료일":null,
    "설치장소":"청량리역 환승센터 1번 승강장",
    "면적":null,
    "이용가능인원":null,
    "냉난방기":"Y",
    "추천날씨":"['폭염', '비', '눈', '한파', '미세먼지']",
    "실내\/외":"실내",
    "Wi-Fi":"Y",
    "충전시설":"Y",
    "공기정화기":"Y",
    "decimalLatitude":37.58342867,
    "decimalLongitude":127.0494521
  },
  {
    "쉼터명":"스마트쉼터",
    "쉼터 종류":"스마트쉼터",
    "쉼터 유형":null,
    "주소":"서울시 동대문구 고산자로 402",
    "운영시간":"05:00:00 ~ 익일 01:00:00",
    "휴무일":null,
    "운영시작일":null,
    "운영종료일":null,
    "설치장소":"동대문구청ㆍ용두역3번출구",
    "면적":null,
    "이용가능인원":null,
    "냉난방기":"Y",
    "추천날씨":"['폭염', '비', '눈', '한파', '미세먼지']",
    "실내\/외":"실내",
    "Wi-Fi":"Y",
    "충전시설":"Y",
    "공기정화기":"Y",
    "decimalLatitude":37.57545238,
    "decimalLongitude":127.0385007
  },
  {
    "쉼터명":"스마트쉼터",
    "쉼터 종류":"스마트쉼터",
    "쉼터 유형":null,
    "주소":"서울시 동대문구 전농동 691-3",
    "운영시간":"05:00:00 ~ 익일 01:00:00",
    "휴무일":null,
    "운영시작일":null,
    "운영종료일":null,
    "설치장소":"동대문중학교",
    "면적":null,
    "이용가능인원":null,
    "냉난방기":"Y",
    "추천날씨":"['폭염', '비', '눈', '한파', '미세먼지']",
    "실내\/외":"실내",
    "Wi-Fi":"Y",
    "충전시설":"Y",
    "공기정화기":"Y",
    "decimalLatitude":37.57542353,
    "decimalLongitude":127.0535668
  },
  {
    "쉼터명":"스마트쉼터",
    "쉼터 종류":"스마트쉼터",
    "쉼터 유형":null,
    "주소":"서울시 동대문구 왕산로 205",
    "운영시간":"05:00:00 ~ 익일 01:00:00",
    "휴무일":null,
    "운영시작일":null,
    "운영종료일":null,
    "설치장소":"청량리역 환승센터 5번 승강장",
    "면적":null,
    "이용가능인원":null,
    "냉난방기":"Y",
    "추천날씨":"['폭염', '비', '눈', '한파', '미세먼지']",
    "실내\/외":"실내",
    "Wi-Fi":"Y",
    "충전시설":"Y",
    "공기정화기":"Y",
    "decimalLatitude":37.58089358,
    "decimalLongitude":127.0455726
  },
  {
    "쉼터명":"스마트쉼터",
    "쉼터 종류":"스마트쉼터",
    "쉼터 유형":null,
    "주소":"서울특별시 성동구 고산자로 280",
    "운영시간":"05:00:00 ~ 익일 01:00:00",
    "휴무일":null,
    "운영시작일":null,
    "운영종료일":null,
    "설치장소":"성동구청 버스정류장 (04574)",
    "면적":null,
    "이용가능인원":null,
    "냉난방기":"Y",
    "추천날씨":"['폭염', '비', '눈', '한파', '미세먼지']",
    "실내\/외":"실내",
    "Wi-Fi":"Y",
    "충전시설":"Y",
    "공기정화기":"Y",
    "decimalLatitude":37.56400914,
    "decimalLongitude":127.0366883
  },
  {
    "쉼터명":"스마트쉼터",
    "쉼터 종류":"스마트쉼터",
    "쉼터 유형":null,
    "주소":"서울특별시 성동구 왕십리로 410",
    "운영시간":"05:00:00 ~ 익일 01:00:00",
    "휴무일":null,
    "운영시작일":null,
    "운영종료일":null,
    "설치장소":"센트라스, 성동고방면 버스정류장 (04103)",
    "면적":null,
    "이용가능인원":null,
    "냉난방기":"Y",
    "추천날씨":"['폭염', '비', '눈', '한파', '미세먼지']",
    "실내\/외":"실내",
    "Wi-Fi":"Y",
    "충전시설":"Y",
    "공기정화기":"Y",
    "decimalLatitude":37.56660293,
    "decimalLongitude":127.0240825
  },
  {
    "쉼터명":"스마트쉼터",
    "쉼터 종류":"스마트쉼터",
    "쉼터 유형":null,
    "주소":"서울특별시 성동구 고산자로 164",
    "운영시간":"05:00:00 ~ 익일 01:00:00",
    "휴무일":null,
    "운영시작일":null,
    "운영종료일":null,
    "설치장소":"상왕십리역 버스정류장 (04102)",
    "면적":null,
    "이용가능인원":null,
    "냉난방기":"Y",
    "추천날씨":"['폭염', '비', '눈', '한파', '미세먼지']",
    "실내\/외":"실내",
    "Wi-Fi":"Y",
    "충전시설":"Y",
    "공기정화기":"Y",
    "decimalLatitude":37.55506876,
    "decimalLongitude":127.0354241
  },
  {
    "쉼터명":"스마트쉼터",
    "쉼터 종류":"스마트쉼터",
    "쉼터 유형":null,
    "주소":"서울특별시 성동구 광나루로 311",
    "운영시간":"05:00:00 ~ 익일 01:00:00",
    "휴무일":null,
    "운영시작일":null,
    "운영종료일":null,
    "설치장소":"성동세무서 버스정류장 (04213)",
    "면적":null,
    "이용가능인원":null,
    "냉난방기":"Y",
    "추천날씨":"['폭염', '비', '눈', '한파', '미세먼지']",
    "실내\/외":"실내",
    "Wi-Fi":"Y",
    "충전시설":"Y",
    "공기정화기":"Y",
    "decimalLatitude":37.54833047,
    "decimalLongitude":127.064235
  },
  {
    "쉼터명":"스마트쉼터",
    "쉼터 종류":"스마트쉼터",
    "쉼터 유형":null,
    "주소":"서울특별시 성동구 왕십리로 222",
    "운영시간":"05:00:00 ~ 익일 01:00:00",
    "휴무일":null,
    "운영시작일":null,
    "운영종료일":null,
    "설치장소":"한양대정문 앞 버스정류장 (04130)",
    "면적":null,
    "이용가능인원":null,
    "냉난방기":"Y",
    "추천날씨":"['폭염', '비', '눈', '한파', '미세먼지']",
    "실내\/외":"실내",
    "Wi-Fi":"Y",
    "충전시설":"Y",
    "공기정화기":"Y",
    "decimalLatitude":37.55450355,
    "decimalLongitude":127.0466112
  },
  {
    "쉼터명":"스마트쉼터",
    "쉼터 종류":"스마트쉼터",
    "쉼터 유형":null,
    "주소":"서울특별시 성동구 매봉길 50",
    "운영시간":"05:00:00 ~ 익일 01:00:00",
    "휴무일":null,
    "운영시작일":null,
    "운영종료일":null,
    "설치장소":"금호역 버스정류장 (04156)",
    "면적":null,
    "이용가능인원":null,
    "냉난방기":"Y",
    "추천날씨":"['폭염', '비', '눈', '한파', '미세먼지']",
    "실내\/외":"실내",
    "Wi-Fi":"Y",
    "충전시설":"Y",
    "공기정화기":"Y",
    "decimalLatitude":37.54729891,
    "decimalLongitude":127.0121894
  },
  {
    "쉼터명":"스마트쉼터",
    "쉼터 종류":"스마트쉼터",
    "쉼터 유형":null,
    "주소":"서울특별시 성동구 독서당로 211",
    "운영시간":"05:00:00 ~ 익일 01:00:00",
    "휴무일":null,
    "운영시작일":null,
    "운영종료일":null,
    "설치장소":"옥수파출소 앞 버스정류장 (04162)",
    "면적":null,
    "이용가능인원":null,
    "냉난방기":"Y",
    "추천날씨":"['폭염', '비', '눈', '한파', '미세먼지']",
    "실내\/외":"실내",
    "Wi-Fi":"Y",
    "충전시설":"Y",
    "공기정화기":"Y",
    "decimalLatitude":37.54383892,
    "decimalLongitude":127.0143489
  },
  {
    "쉼터명":"스마트쉼터",
    "쉼터 종류":"스마트쉼터",
    "쉼터 유형":null,
    "주소":"서울특별시 성동구 금호로 173",
    "운영시간":"05:00:00 ~ 익일 01:00:00",
    "휴무일":null,
    "운영시작일":null,
    "운영종료일":null,
    "설치장소":"신금호역 버스정류장 (04146)",
    "면적":null,
    "이용가능인원":null,
    "냉난방기":"Y",
    "추천날씨":"['폭염', '비', '눈', '한파', '미세먼지']",
    "실내\/외":"실내",
    "Wi-Fi":"Y",
    "충전시설":"Y",
    "공기정화기":"Y",
    "decimalLatitude":37.55627884,
    "decimalLongitude":127.0181523
  },
  {
    "쉼터명":"스마트쉼터",
    "쉼터 종류":"스마트쉼터",
    "쉼터 유형":null,
    "주소":"서울특별시 성동구 독서당로 424",
    "운영시간":"05:00:00 ~ 익일 01:00:00",
    "휴무일":null,
    "운영시작일":null,
    "운영종료일":null,
    "설치장소":"응봉동주민센터 버스정류장 (04138)",
    "면적":null,
    "이용가능인원":null,
    "냉난방기":"Y",
    "추천날씨":"['폭염', '비', '눈', '한파', '미세먼지']",
    "실내\/외":"실내",
    "Wi-Fi":"Y",
    "충전시설":"Y",
    "공기정화기":"Y",
    "decimalLatitude":37.55313923,
    "decimalLongitude":127.0334024
  },
  {
    "쉼터명":"스마트쉼터",
    "쉼터 종류":"스마트쉼터",
    "쉼터 유형":null,
    "주소":"서울특별시 성동구 뚝섬로 377",
    "운영시간":"05:00:00 ~ 익일 01:00:00",
    "휴무일":null,
    "운영시작일":null,
    "운영종료일":null,
    "설치장소":"성수동이마트 버스정류장 (04198)",
    "면적":null,
    "이용가능인원":null,
    "냉난방기":"Y",
    "추천날씨":"['폭염', '비', '눈', '한파', '미세먼지']",
    "실내\/외":"실내",
    "Wi-Fi":"Y",
    "충전시설":"Y",
    "공기정화기":"Y",
    "decimalLatitude":37.54002085,
    "decimalLongitude":127.0529082
  },
  {
    "쉼터명":"스마트쉼터",
    "쉼터 종류":"스마트쉼터",
    "쉼터 유형":null,
    "주소":"서울특별시 성동구 고산자로 201",
    "운영시간":"05:00:00 ~ 익일 01:00:00",
    "휴무일":null,
    "운영시작일":null,
    "운영종료일":null,
    "설치장소":"무학여고 앞 버스정류장 (04132)",
    "면적":null,
    "이용가능인원":null,
    "냉난방기":"Y",
    "추천날씨":"['폭염', '비', '눈', '한파', '미세먼지']",
    "실내\/외":"실내",
    "Wi-Fi":"Y",
    "충전시설":"Y",
    "공기정화기":"Y",
    "decimalLatitude":37.55805317,
    "decimalLongitude":127.0337642
  },
  {
    "쉼터명":"스마트쉼터",
    "쉼터 종류":"스마트쉼터",
    "쉼터 유형":null,
    "주소":"서울특별시 성동구 고산자로 340",
    "운영시간":"05:00:00 ~ 익일 01:00:00",
    "휴무일":null,
    "운영시작일":null,
    "운영종료일":null,
    "설치장소":"마장축산물(도선사거리) 버스정류장 (04120)",
    "면적":null,
    "이용가능인원":null,
    "냉난방기":"Y",
    "추천날씨":"['폭염', '비', '눈', '한파', '미세먼지']",
    "실내\/외":"실내",
    "Wi-Fi":"Y",
    "충전시설":"Y",
    "공기정화기":"Y",
    "decimalLatitude":37.56978001,
    "decimalLongitude":127.037878
  },
  {
    "쉼터명":"스마트쉼터",
    "쉼터 종류":"스마트쉼터",
    "쉼터 유형":null,
    "주소":"서울특별시 성동구 고산자로 345",
    "운영시간":"05:00:00 ~ 익일 01:00:00",
    "휴무일":null,
    "운영시작일":null,
    "운영종료일":null,
    "설치장소":"마장축산물(동대문) 버스정류장 (04119)",
    "면적":null,
    "이용가능인원":null,
    "냉난방기":"Y",
    "추천날씨":"['폭염', '비', '눈', '한파', '미세먼지']",
    "실내\/외":"실내",
    "Wi-Fi":"Y",
    "충전시설":"Y",
    "공기정화기":"Y",
    "decimalLatitude":37.57047818,
    "decimalLongitude":127.0373426
  },
  {
    "쉼터명":"스마트쉼터",
    "쉼터 종류":"스마트쉼터",
    "쉼터 유형":null,
    "주소":"서울특별시 성동구 천호대로 302",
    "운영시간":"05:00:00 ~ 익일 01:00:00",
    "휴무일":null,
    "운영시작일":null,
    "운영종료일":null,
    "설치장소":"용답동부시장,답십리역 버스정류장 (04218)",
    "면적":null,
    "이용가능인원":null,
    "냉난방기":"Y",
    "추천날씨":"['폭염', '비', '눈', '한파', '미세먼지']",
    "실내\/외":"실내",
    "Wi-Fi":"Y",
    "충전시설":"Y",
    "공기정화기":"Y",
    "decimalLatitude":null,
    "decimalLongitude":null
  },
  {
    "쉼터명":"스마트쉼터",
    "쉼터 종류":"스마트쉼터",
    "쉼터 유형":null,
    "주소":"서울특별시 성동구 행당로 87",
    "운영시간":"05:00:00 ~ 익일 01:00:00",
    "휴무일":null,
    "운영시작일":null,
    "운영종료일":null,
    "설치장소":"행당역,대림아파트정문 버스정류장 (04280)",
    "면적":null,
    "이용가능인원":null,
    "냉난방기":"Y",
    "추천날씨":"['폭염', '비', '눈', '한파', '미세먼지']",
    "실내\/외":"실내",
    "Wi-Fi":"Y",
    "충전시설":"Y",
    "공기정화기":"Y",
    "decimalLatitude":37.55729212,
    "decimalLongitude":127.0285443
  },
  {
    "쉼터명":"스마트쉼터",
    "쉼터 종류":"스마트쉼터",
    "쉼터 유형":null,
    "주소":"서울특별시 성동구 왕십리로 58",
    "운영시간":"05:00:00 ~ 익일 01:00:00",
    "휴무일":null,
    "운영시작일":null,
    "운영종료일":null,
    "설치장소":"서울숲(구민종합체육센터) 버스정류장 (04177)",
    "면적":null,
    "이용가능인원":null,
    "냉난방기":"Y",
    "추천날씨":"['폭염', '비', '눈', '한파', '미세먼지']",
    "실내\/외":"실내",
    "Wi-Fi":"Y",
    "충전시설":"Y",
    "공기정화기":"Y",
    "decimalLatitude":37.54269588,
    "decimalLongitude":127.0452053
  },
  {
    "쉼터명":"스마트쉼터",
    "쉼터 종류":"스마트쉼터",
    "쉼터 유형":null,
    "주소":"서울특별시 성동구 동일로 169",
    "운영시간":"05:00:00 ~ 익일 01:00:00",
    "휴무일":null,
    "운영시작일":null,
    "운영종료일":null,
    "설치장소":"화양사거리(성수초) 버스정류장 (04207)",
    "면적":null,
    "이용가능인원":null,
    "냉난방기":"Y",
    "추천날씨":"['폭염', '비', '눈', '한파', '미세먼지']",
    "실내\/외":"실내",
    "Wi-Fi":"Y",
    "충전시설":"Y",
    "공기정화기":"Y",
    "decimalLatitude":37.54755313,
    "decimalLongitude":127.0665945
  },
  {
    "쉼터명":"스마트쉼터",
    "쉼터 종류":"스마트쉼터",
    "쉼터 유형":null,
    "주소":"서울특별시 성동구 왕십리로 369",
    "운영시간":"05:00:00 ~ 익일 01:00:00",
    "휴무일":null,
    "운영시작일":null,
    "운영종료일":null,
    "설치장소":"상왕십리역(왕십리2동주민센터) 버스정류장 (04101)",
    "면적":null,
    "이용가능인원":null,
    "냉난방기":"Y",
    "추천날씨":"['폭염', '비', '눈', '한파', '미세먼지']",
    "실내\/외":"실내",
    "Wi-Fi":"Y",
    "충전시설":"Y",
    "공기정화기":"Y",
    "decimalLatitude":37.56422094,
    "decimalLongitude":127.0290191
  },
  {
    "쉼터명":"스마트쉼터",
    "쉼터 종류":"스마트쉼터",
    "쉼터 유형":null,
    "주소":"서울특별시 성동구 아차산로 42",
    "운영시간":"05:00:00 ~ 익일 01:00:00",
    "휴무일":null,
    "운영시작일":null,
    "운영종료일":null,
    "설치장소":"뚝섬역 3번5번출구 버스정류장 (04238)",
    "면적":null,
    "이용가능인원":null,
    "냉난방기":"Y",
    "추천날씨":"['폭염', '비', '눈', '한파', '미세먼지']",
    "실내\/외":"실내",
    "Wi-Fi":"Y",
    "충전시설":"Y",
    "공기정화기":"Y",
    "decimalLatitude":37.54643473,
    "decimalLongitude":127.0491001
  },
  {
    "쉼터명":"스마트쉼터",
    "쉼터 종류":"스마트쉼터",
    "쉼터 유형":null,
    "주소":"서울특별시 성동구 동일로 265",
    "운영시간":"05:00:00 ~ 익일 01:00:00",
    "휴무일":null,
    "운영시작일":null,
    "운영종료일":null,
    "설치장소":"송정동건영아파트 버스정류장 (04215)",
    "면적":null,
    "이용가능인원":null,
    "냉난방기":"Y",
    "추천날씨":"['폭염', '비', '눈', '한파', '미세먼지']",
    "실내\/외":"실내",
    "Wi-Fi":"Y",
    "충전시설":"Y",
    "공기정화기":"Y",
    "decimalLatitude":37.55532809,
    "decimalLongitude":127.0711086
  },
  {
    "쉼터명":"스마트쉼터",
    "쉼터 종류":"스마트쉼터",
    "쉼터 유형":null,
    "주소":"서울특별시 성동구 행당동 192-3",
    "운영시간":"05:00:00 ~ 익일 01:00:00",
    "휴무일":null,
    "운영시작일":null,
    "운영종료일":null,
    "설치장소":"왕십리역 4번출구 버스정류장 (04302)",
    "면적":null,
    "이용가능인원":null,
    "냉난방기":"Y",
    "추천날씨":"['폭염', '비', '눈', '한파', '미세먼지']",
    "실내\/외":"실내",
    "Wi-Fi":"Y",
    "충전시설":"Y",
    "공기정화기":"Y",
    "decimalLatitude":37.56170852,
    "decimalLongitude":127.0370561
  },
  {
    "쉼터명":"스마트쉼터",
    "쉼터 종류":"스마트쉼터",
    "쉼터 유형":null,
    "주소":"서울특별시 성동구 왕십리로 136",
    "운영시간":"05:00:00 ~ 익일 01:00:00",
    "휴무일":null,
    "운영시작일":null,
    "운영종료일":null,
    "설치장소":"성동교남단 버스정류장 (04185)",
    "면적":null,
    "이용가능인원":null,
    "냉난방기":"Y",
    "추천날씨":"['폭염', '비', '눈', '한파', '미세먼지']",
    "실내\/외":"실내",
    "Wi-Fi":"Y",
    "충전시설":"Y",
    "공기정화기":"Y",
    "decimalLatitude":37.54969337,
    "decimalLongitude":127.0445638
  },
  {
    "쉼터명":"스마트쉼터",
    "쉼터 종류":"스마트쉼터",
    "쉼터 유형":null,
    "주소":"서울특별시 성동구 고산자로 164",
    "운영시간":"05:00:00 ~ 익일 01:00:00",
    "휴무일":null,
    "운영시작일":null,
    "운영종료일":null,
    "설치장소":"응봉사거리 버스정류장 (04140)",
    "면적":null,
    "이용가능인원":null,
    "냉난방기":"Y",
    "추천날씨":"['폭염', '비', '눈', '한파', '미세먼지']",
    "실내\/외":"실내",
    "Wi-Fi":"Y",
    "충전시설":"Y",
    "공기정화기":"Y",
    "decimalLatitude":37.55506876,
    "decimalLongitude":127.0354241
  },
  {
    "쉼터명":"스마트쉼터",
    "쉼터 종류":"스마트쉼터",
    "쉼터 유형":null,
    "주소":"서울특별시 성동구 왕십리로 336",
    "운영시간":"05:00:00 ~ 익일 01:00:00",
    "휴무일":null,
    "운영시작일":null,
    "운영종료일":null,
    "설치장소":"코스모타워,신용보증재단 버스정류장 (04110)",
    "면적":null,
    "이용가능인원":null,
    "냉난방기":"Y",
    "추천날씨":"['폭염', '비', '눈', '한파', '미세먼지']",
    "실내\/외":"실내",
    "Wi-Fi":"Y",
    "충전시설":"Y",
    "공기정화기":"Y",
    "decimalLatitude":37.563151,
    "decimalLongitude":127.0328462
  },
  {
    "쉼터명":"스마트쉼터",
    "쉼터 종류":"스마트쉼터",
    "쉼터 유형":null,
    "주소":"서울특별시 성동구 독서당로 381",
    "운영시간":"05:00:00 ~ 익일 01:00:00",
    "휴무일":null,
    "운영시작일":null,
    "운영종료일":null,
    "설치장소":"응봉현대아파트 버스정류장 (04142)",
    "면적":null,
    "이용가능인원":null,
    "냉난방기":"Y",
    "추천날씨":"['폭염', '비', '눈', '한파', '미세먼지']",
    "실내\/외":"실내",
    "Wi-Fi":"Y",
    "충전시설":"Y",
    "공기정화기":"Y",
    "decimalLatitude":37.55019478,
    "decimalLongitude":127.030693
  },
  {
    "쉼터명":"스마트쉼터",
    "쉼터 종류":"스마트쉼터",
    "쉼터 유형":null,
    "주소":"서울특별시 성동구 행당로6길 97",
    "운영시간":"05:00:00 ~ 익일 01:00:00",
    "휴무일":null,
    "운영시작일":null,
    "운영종료일":null,
    "설치장소":"행당역 버스정류장 (04279)",
    "면적":null,
    "이용가능인원":null,
    "냉난방기":"Y",
    "추천날씨":"['폭염', '비', '눈', '한파', '미세먼지']",
    "실내\/외":"실내",
    "Wi-Fi":"Y",
    "충전시설":"Y",
    "공기정화기":"Y",
    "decimalLatitude":37.5572008,
    "decimalLongitude":127.0301759
  },
  {
    "쉼터명":"스마트쉼터",
    "쉼터 종류":"스마트쉼터",
    "쉼터 유형":null,
    "주소":"서울특별시 성동구 왕십리로5길 3",
    "운영시간":"05:00:00 ~ 익일 01:00:00",
    "휴무일":null,
    "운영시작일":null,
    "운영종료일":null,
    "설치장소":"성동구민종합체육센터 버스정류장 (04180)",
    "면적":null,
    "이용가능인원":null,
    "냉난방기":"Y",
    "추천날씨":"['폭염', '비', '눈', '한파', '미세먼지']",
    "실내\/외":"실내",
    "Wi-Fi":"Y",
    "충전시설":"Y",
    "공기정화기":"Y",
    "decimalLatitude":37.54640255,
    "decimalLongitude":127.0443497
  },
  {
    "쉼터명":"스마트쉼터",
    "쉼터 종류":"스마트쉼터",
    "쉼터 유형":null,
    "주소":"서울특별시 성동구 광나루로11길 54",
    "운영시간":"05:00:00 ~ 익일 01:00:00",
    "휴무일":null,
    "운영시작일":null,
    "운영종료일":null,
    "설치장소":"장미소공원 버스정류장 (04500)",
    "면적":null,
    "이용가능인원":null,
    "냉난방기":"Y",
    "추천날씨":"['폭염', '비', '눈', '한파', '미세먼지']",
    "실내\/외":"실내",
    "Wi-Fi":"Y",
    "충전시설":"Y",
    "공기정화기":"Y",
    "decimalLatitude":37.55213729,
    "decimalLongitude":127.0686988
  },
  {
    "쉼터명":"스마트쉼터",
    "쉼터 종류":"스마트쉼터",
    "쉼터 유형":null,
    "주소":"서울특별시 성동구 마장로 292",
    "운영시간":"05:00:00 ~ 익일 01:00:00",
    "휴무일":null,
    "운영시작일":null,
    "운영종료일":null,
    "설치장소":"마장역 버스정류장 (04117)",
    "면적":null,
    "이용가능인원":null,
    "냉난방기":"Y",
    "추천날씨":"['폭염', '비', '눈', '한파', '미세먼지']",
    "실내\/외":"실내",
    "Wi-Fi":"Y",
    "충전시설":"Y",
    "공기정화기":"Y",
    "decimalLatitude":37.56538308,
    "decimalLongitude":127.0423237
  },
  {
    "쉼터명":"스마트쉼터",
    "쉼터 종류":"스마트쉼터",
    "쉼터 유형":null,
    "주소":"서울특별시 성동구 마조로 77",
    "운영시간":"05:00:00 ~ 익일 01:00:00",
    "휴무일":null,
    "운영시작일":null,
    "운영종료일":null,
    "설치장소":"성동노인복지관 버스정류장 (04118)",
    "면적":null,
    "이용가능인원":null,
    "냉난방기":"Y",
    "추천날씨":"['폭염', '비', '눈', '한파', '미세먼지']",
    "실내\/외":"실내",
    "Wi-Fi":"Y",
    "충전시설":"Y",
    "공기정화기":"Y",
    "decimalLatitude":37.56478466,
    "decimalLongitude":127.0412399
  },
  {
    "쉼터명":"스마트쉼터",
    "쉼터 종류":"스마트쉼터",
    "쉼터 유형":null,
    "주소":"서울특별시 성동구 청계천로 506",
    "운영시간":"05:00:00 ~ 익일 01:00:00",
    "휴무일":null,
    "운영시작일":null,
    "운영종료일":null,
    "설치장소":"성동사회복지관,청계천박물관 버스정류장 (04595)",
    "면적":null,
    "이용가능인원":null,
    "냉난방기":"Y",
    "추천날씨":"['폭염', '비', '눈', '한파', '미세먼지']",
    "실내\/외":"실내",
    "Wi-Fi":"Y",
    "충전시설":"Y",
    "공기정화기":"Y",
    "decimalLatitude":37.57022302,
    "decimalLongitude":127.0334402
  },
  {
    "쉼터명":"스마트쉼터",
    "쉼터 종류":"스마트쉼터",
    "쉼터 유형":null,
    "주소":"서울특별시 성동구 청계천로 546",
    "운영시간":"05:00:00 ~ 익일 01:00:00",
    "휴무일":null,
    "운영시작일":null,
    "운영종료일":null,
    "설치장소":"성동구도시관리공단 버스정류장 (04600)",
    "면적":null,
    "이용가능인원":null,
    "냉난방기":"Y",
    "추천날씨":"['폭염', '비', '눈', '한파', '미세먼지']",
    "실내\/외":"실내",
    "Wi-Fi":"Y",
    "충전시설":"Y",
    "공기정화기":"Y",
    "decimalLatitude":37.57171493,
    "decimalLongitude":127.0369038
  },
  {
    "쉼터명":"스마트쉼터",
    "쉼터 종류":"스마트쉼터",
    "쉼터 유형":null,
    "주소":"서울특별시 성동구 마조로 14",
    "운영시간":"05:00:00 ~ 익일 01:00:00",
    "휴무일":null,
    "운영시작일":null,
    "운영종료일":null,
    "설치장소":"한양대앞, 한양시장 버스정류장 (04127)",
    "면적":null,
    "이용가능인원":null,
    "냉난방기":"Y",
    "추천날씨":"['폭염', '비', '눈', '한파', '미세먼지']",
    "실내\/외":"실내",
    "Wi-Fi":"Y",
    "충전시설":"Y",
    "공기정화기":"Y",
    "decimalLatitude":37.55901111,
    "decimalLongitude":127.0411532
  },
  {
    "쉼터명":"스마트쉼터",
    "쉼터 종류":"스마트쉼터",
    "쉼터 유형":null,
    "주소":"서울특별시 성동구 응봉동 193",
    "운영시간":"05:00:00 ~ 익일 01:00:00",
    "휴무일":null,
    "운영시작일":null,
    "운영종료일":null,
    "설치장소":"광희중학교, 응봉역 버스정류장 (04821)",
    "면적":null,
    "이용가능인원":null,
    "냉난방기":"Y",
    "추천날씨":"['폭염', '비', '눈', '한파', '미세먼지']",
    "실내\/외":"실내",
    "Wi-Fi":"Y",
    "충전시설":"Y",
    "공기정화기":"Y",
    "decimalLatitude":37.5508618,
    "decimalLongitude":127.033949
  },
  {
    "쉼터명":"스마트쉼터",
    "쉼터 종류":"스마트쉼터",
    "쉼터 유형":null,
    "주소":"서울특별시 성동구 난계로 58",
    "운영시간":"05:00:00 ~ 익일 01:00:00",
    "휴무일":null,
    "운영시작일":null,
    "운영종료일":null,
    "설치장소":"논골신협대림아파트 후문 버스정류장 (04560)",
    "면적":null,
    "이용가능인원":null,
    "냉난방기":"Y",
    "추천날씨":"['폭염', '비', '눈', '한파', '미세먼지']",
    "실내\/외":"실내",
    "Wi-Fi":"Y",
    "충전시설":"Y",
    "공기정화기":"Y",
    "decimalLatitude":37.55781143,
    "decimalLongitude":127.0246469
  },
  {
    "쉼터명":"스마트쉼터",
    "쉼터 종류":"스마트쉼터",
    "쉼터 유형":null,
    "주소":"서울특별시 성동구 독서당로 343",
    "운영시간":"05:00:00 ~ 익일 01:00:00",
    "휴무일":null,
    "운영시작일":null,
    "운영종료일":null,
    "설치장소":"삼성래미안아파트 버스정류장 (04160)",
    "면적":null,
    "이용가능인원":null,
    "냉난방기":"Y",
    "추천날씨":"['폭염', '비', '눈', '한파', '미세먼지']",
    "실내\/외":"실내",
    "Wi-Fi":"Y",
    "충전시설":"Y",
    "공기정화기":"Y",
    "decimalLatitude":37.54981177,
    "decimalLongitude":127.0270079
  },
  {
    "쉼터명":"스마트쉼터",
    "쉼터 종류":"스마트쉼터",
    "쉼터 유형":null,
    "주소":"서울특별시 성동구 동호로2가길 9-10",
    "운영시간":"05:00:00 ~ 익일 01:00:00",
    "휴무일":null,
    "운영시작일":null,
    "운영종료일":null,
    "설치장소":"금호역(2번출구옆, 금호터널입구방면) 버스정류장 (04155)",
    "면적":null,
    "이용가능인원":null,
    "냉난방기":"Y",
    "추천날씨":"['폭염', '비', '눈', '한파', '미세먼지']",
    "실내\/외":"실내",
    "Wi-Fi":"Y",
    "충전시설":"Y",
    "공기정화기":"Y",
    "decimalLatitude":37.54781701,
    "decimalLongitude":127.0164352
  },
  {
    "쉼터명":"스마트쉼터",
    "쉼터 종류":"스마트쉼터",
    "쉼터 유형":null,
    "주소":"서울특별시 성동구 동호로 102",
    "운영시간":"05:00:00 ~ 익일 01:00:00",
    "휴무일":null,
    "운영시작일":null,
    "운영종료일":null,
    "설치장소":"금호역(마을버스 정문) 버스정류장 (04764)",
    "면적":null,
    "이용가능인원":null,
    "냉난방기":"Y",
    "추천날씨":"['폭염', '비', '눈', '한파', '미세먼지']",
    "실내\/외":"실내",
    "Wi-Fi":"Y",
    "충전시설":"Y",
    "공기정화기":"Y",
    "decimalLatitude":37.54887929,
    "decimalLongitude":127.0164225
  },
  {
    "쉼터명":"스마트쉼터",
    "쉼터 종류":"스마트쉼터",
    "쉼터 유형":null,
    "주소":"서울특별시 성동구 독서당로 342",
    "운영시간":"05:00:00 ~ 익일 01:00:00",
    "휴무일":null,
    "운영시작일":null,
    "운영종료일":null,
    "설치장소":"힐스테이트서울숲리버 버스정류장 (04159)",
    "면적":null,
    "이용가능인원":null,
    "냉난방기":"Y",
    "추천날씨":"['폭염', '비', '눈', '한파', '미세먼지']",
    "실내\/외":"실내",
    "Wi-Fi":"Y",
    "충전시설":"Y",
    "공기정화기":"Y",
    "decimalLatitude":37.547886,
    "decimalLongitude":127.0268881
  },
  {
    "쉼터명":"스마트쉼터",
    "쉼터 종류":"스마트쉼터",
    "쉼터 유형":null,
    "주소":"서울특별시 성동구 왕십리로 63",
    "운영시간":"05:00:00 ~ 익일 01:00:00",
    "휴무일":null,
    "운영시작일":null,
    "운영종료일":null,
    "설치장소":"서울숲(똑도아리수정수센터) 버스정류장 (04178)",
    "면적":null,
    "이용가능인원":null,
    "냉난방기":"Y",
    "추천날씨":"['폭염', '비', '눈', '한파', '미세먼지']",
    "실내\/외":"실내",
    "Wi-Fi":"Y",
    "충전시설":"Y",
    "공기정화기":"Y",
    "decimalLatitude":37.5436228,
    "decimalLongitude":127.0435859
  },
  {
    "쉼터명":"스마트쉼터",
    "쉼터 종류":"스마트쉼터",
    "쉼터 유형":null,
    "주소":"서울특별시 성동구 아차산로 41",
    "운영시간":"05:00:00 ~ 익일 01:00:00",
    "휴무일":null,
    "운영시작일":null,
    "운영종료일":null,
    "설치장소":"뚝섬역 4번출구 버스정류장 (04239)",
    "면적":null,
    "이용가능인원":null,
    "냉난방기":"Y",
    "추천날씨":"['폭염', '비', '눈', '한파', '미세먼지']",
    "실내\/외":"실내",
    "Wi-Fi":"Y",
    "충전시설":"Y",
    "공기정화기":"Y",
    "decimalLatitude":37.5469652,
    "decimalLongitude":127.0489755
  },
  {
    "쉼터명":"스마트쉼터",
    "쉼터 종류":"스마트쉼터",
    "쉼터 유형":null,
    "주소":"서울특별시 성동구 광나루로 144",
    "운영시간":"05:00:00 ~ 익일 01:00:00",
    "휴무일":null,
    "운영시작일":null,
    "운영종료일":null,
    "설치장소":"상원 버스정류장 (04187)",
    "면적":null,
    "이용가능인원":null,
    "냉난방기":"Y",
    "추천날씨":"['폭염', '비', '눈', '한파', '미세먼지']",
    "실내\/외":"실내",
    "Wi-Fi":"Y",
    "충전시설":"Y",
    "공기정화기":"Y",
    "decimalLatitude":37.55130003,
    "decimalLongitude":127.0464354
  },
  {
    "쉼터명":"스마트쉼터",
    "쉼터 종류":"스마트쉼터",
    "쉼터 유형":null,
    "주소":"서울특별시 성동구 아차산로 17",
    "운영시간":"05:00:00 ~ 익일 01:00:00",
    "휴무일":null,
    "운영시작일":null,
    "운영종료일":null,
    "설치장소":"뚝섬역 2번출구 버스정류장 (04237)",
    "면적":null,
    "이용가능인원":null,
    "냉난방기":"Y",
    "추천날씨":"['폭염', '비', '눈', '한파', '미세먼지']",
    "실내\/외":"실내",
    "Wi-Fi":"Y",
    "충전시설":"Y",
    "공기정화기":"Y",
    "decimalLatitude":37.54796075,
    "decimalLongitude":127.0464405
  },
  {
    "쉼터명":"스마트쉼터",
    "쉼터 종류":"스마트쉼터",
    "쉼터 유형":null,
    "주소":"서울특별시 성동구 아차산로 163",
    "운영시간":"05:00:00 ~ 익일 01:00:00",
    "휴무일":null,
    "운영시작일":null,
    "운영종료일":null,
    "설치장소":"성수사거리 버스정류장 (04257)",
    "면적":null,
    "이용가능인원":null,
    "냉난방기":"Y",
    "추천날씨":"['폭염', '비', '눈', '한파', '미세먼지']",
    "실내\/외":"실내",
    "Wi-Fi":"Y",
    "충전시설":"Y",
    "공기정화기":"Y",
    "decimalLatitude":37.54296004,
    "decimalLongitude":127.0620839
  },
  {
    "쉼터명":"스마트쉼터",
    "쉼터 종류":"스마트쉼터",
    "쉼터 유형":null,
    "주소":"서울특별시 성동구 광나루로 243",
    "운영시간":"05:00:00 ~ 익일 01:00:00",
    "휴무일":null,
    "운영시작일":null,
    "운영종료일":null,
    "설치장소":"제인병원 버스정류장 (04211)",
    "면적":null,
    "이용가능인원":null,
    "냉난방기":"Y",
    "추천날씨":"['폭염', '비', '눈', '한파', '미세먼지']",
    "실내\/외":"실내",
    "Wi-Fi":"Y",
    "충전시설":"Y",
    "공기정화기":"Y",
    "decimalLatitude":37.54946127,
    "decimalLongitude":127.0569437
  },
  {
    "쉼터명":"스마트쉼터",
    "쉼터 종류":"스마트쉼터",
    "쉼터 유형":null,
    "주소":"서울특별시 성동구 동일로 291",
    "운영시간":"05:00:00 ~ 익일 01:00:00",
    "휴무일":null,
    "운영시작일":null,
    "운영종료일":null,
    "설치장소":"군자교남단 버스정류장 (04216)",
    "면적":null,
    "이용가능인원":null,
    "냉난방기":"Y",
    "추천날씨":"['폭염', '비', '눈', '한파', '미세먼지']",
    "실내\/외":"실내",
    "Wi-Fi":"Y",
    "충전시설":"Y",
    "공기정화기":"Y",
    "decimalLatitude":37.55762073,
    "decimalLongitude":127.0723628
  },
  {
    "쉼터명":"스마트쉼터",
    "쉼터 종류":"스마트쉼터",
    "쉼터 유형":null,
    "주소":"서울특별시 성동구 천호대로 232",
    "운영시간":"05:00:00 ~ 익일 01:00:00",
    "휴무일":null,
    "운영시작일":null,
    "운영종료일":null,
    "설치장소":"신답역 버스정류장 (04217)",
    "면적":null,
    "이용가능인원":null,
    "냉난방기":"Y",
    "추천날씨":"['폭염', '비', '눈', '한파', '미세먼지']",
    "실내\/외":"실내",
    "Wi-Fi":"Y",
    "충전시설":"Y",
    "공기정화기":"Y",
    "decimalLatitude":37.56999106,
    "decimalLongitude":127.0468202
  },
  {
    "쉼터명":"스마트쉼터",
    "쉼터 종류":"스마트쉼터",
    "쉼터 유형":null,
    "주소":"서울특별시 성동구 하왕십리동 259-12",
    "운영시간":"05:00:00 ~ 익일 01:00:00",
    "휴무일":null,
    "운영시작일":null,
    "운영종료일":null,
    "설치장소":"청계벽산아파트, 텐즈힐아파트버스정류장 (04107)",
    "면적":null,
    "이용가능인원":null,
    "냉난방기":"Y",
    "추천날씨":"['폭염', '비', '눈', '한파', '미세먼지']",
    "실내\/외":"실내",
    "Wi-Fi":"Y",
    "충전시설":"Y",
    "공기정화기":"Y",
    "decimalLatitude":37.5680981,
    "decimalLongitude":127.0301248
  },
  {
    "쉼터명":"스마트쉼터",
    "쉼터 종류":"스마트쉼터",
    "쉼터 유형":null,
    "주소":"서울특별시 성동구 상왕십리동 16-4",
    "운영시간":"05:00:00 ~ 익일 01:00:00",
    "휴무일":null,
    "운영시작일":null,
    "운영종료일":null,
    "설치장소":"황학교, 텐즈힐몰버스정류장 (04295)",
    "면적":null,
    "이용가능인원":null,
    "냉난방기":"Y",
    "추천날씨":"['폭염', '비', '눈', '한파', '미세먼지']",
    "실내\/외":"실내",
    "Wi-Fi":"Y",
    "충전시설":"Y",
    "공기정화기":"Y",
    "decimalLatitude":37.57060275,
    "decimalLongitude":127.023502
  },
  {
    "쉼터명":"스마트쉼터",
    "쉼터 종류":"스마트쉼터",
    "쉼터 유형":null,
    "주소":"서울특별시 성동구 하왕십리동 282-4",
    "운영시간":"05:00:00 ~ 익일 01:00:00",
    "휴무일":null,
    "운영시작일":null,
    "운영종료일":null,
    "설치장소":"청계벽산아파트.텐즈힐아파트 버스정류장 (04106)",
    "면적":null,
    "이용가능인원":null,
    "냉난방기":"Y",
    "추천날씨":"['폭염', '비', '눈', '한파', '미세먼지']",
    "실내\/외":"실내",
    "Wi-Fi":"Y",
    "충전시설":"Y",
    "공기정화기":"Y",
    "decimalLatitude":37.56865002,
    "decimalLongitude":127.0302236
  },
  {
    "쉼터명":"스마트쉼터",
    "쉼터 종류":"스마트쉼터",
    "쉼터 유형":null,
    "주소":"서울특별시 성동구 홍익동 590",
    "운영시간":"05:00:00 ~ 익일 01:00:00",
    "휴무일":null,
    "운영시작일":null,
    "운영종료일":null,
    "설치장소":"상왕십리역?센트라스아파트 버스정류장 (04114)",
    "면적":null,
    "이용가능인원":null,
    "냉난방기":"Y",
    "추천날씨":"['폭염', '비', '눈', '한파', '미세먼지']",
    "실내\/외":"실내",
    "Wi-Fi":"Y",
    "충전시설":"Y",
    "공기정화기":"Y",
    "decimalLatitude":37.56591451,
    "decimalLongitude":127.0363149
  },
  {
    "쉼터명":"스마트쉼터",
    "쉼터 종류":"스마트쉼터",
    "쉼터 유형":null,
    "주소":"서울특별시 성동구 성수동2가 280-41",
    "운영시간":"05:00:00 ~ 익일 01:00:00",
    "휴무일":null,
    "운영시작일":null,
    "운영종료일":null,
    "설치장소":"성동세무서앞 버스정류장 (04212)",
    "면적":null,
    "이용가능인원":null,
    "냉난방기":"Y",
    "추천날씨":"['폭염', '비', '눈', '한파', '미세먼지']",
    "실내\/외":"실내",
    "Wi-Fi":"Y",
    "충전시설":"Y",
    "공기정화기":"Y",
    "decimalLatitude":37.54790342,
    "decimalLongitude":127.0619998
  },
  {
    "쉼터명":"스마트쉼터",
    "쉼터 종류":"스마트쉼터",
    "쉼터 유형":null,
    "주소":"서울특별시 성동구 성수동1가 656-853",
    "운영시간":"05:00:00 ~ 익일 01:00:00",
    "휴무일":null,
    "운영시작일":null,
    "운영종료일":null,
    "설치장소":"뚝섬역 8번출구 버스정류장 (04236)",
    "면적":null,
    "이용가능인원":null,
    "냉난방기":"Y",
    "추천날씨":"['폭염', '비', '눈', '한파', '미세먼지']",
    "실내\/외":"실내",
    "Wi-Fi":"Y",
    "충전시설":"Y",
    "공기정화기":"Y",
    "decimalLatitude":37.54800076,
    "decimalLongitude":127.0450109
  },
  {
    "쉼터명":"스마트파고라",
    "쉼터 종류":"스마트쉼터",
    "쉼터 유형":null,
    "주소":"서울특별시 용산구 신계동 55",
    "운영시간":"05:00:00 ~ 익일 01:00:00",
    "휴무일":null,
    "운영시작일":null,
    "운영종료일":null,
    "설치장소":"신계역사공원",
    "면적":null,
    "이용가능인원":null,
    "냉난방기":"Y",
    "추천날씨":"['폭염', '비', '눈', '한파', '미세먼지']",
    "실내\/외":"실내",
    "Wi-Fi":"Y",
    "충전시설":"Y",
    "공기정화기":"Y",
    "decimalLatitude":37.53542895,
    "decimalLongitude":126.9664122
  },
  {
    "쉼터명":"용산형 스마트쉼터",
    "쉼터 종류":"스마트쉼터",
    "쉼터 유형":null,
    "주소":"용산역광장앞(03-258)",
    "운영시간":"05:00:00 ~ 익일 01:00:00",
    "휴무일":null,
    "운영시작일":null,
    "운영종료일":null,
    "설치장소":"용산역광장앞",
    "면적":null,
    "이용가능인원":null,
    "냉난방기":"Y",
    "추천날씨":"['폭염', '비', '눈', '한파', '미세먼지']",
    "실내\/외":"실내",
    "Wi-Fi":"Y",
    "충전시설":"Y",
    "공기정화기":"Y",
    "decimalLatitude":null,
    "decimalLongitude":null
  },
  {
    "쉼터명":"용산형 스마트쉼터",
    "쉼터 종류":"스마트쉼터",
    "쉼터 유형":null,
    "주소":"이촌동한가람아파트. 이촌역(03-217)",
    "운영시간":"05:00:00 ~ 익일 01:00:00",
    "휴무일":null,
    "운영시작일":null,
    "운영종료일":null,
    "설치장소":"이촌동한가람아파트. 이촌역",
    "면적":null,
    "이용가능인원":null,
    "냉난방기":"Y",
    "추천날씨":"['폭염', '비', '눈', '한파', '미세먼지']",
    "실내\/외":"실내",
    "Wi-Fi":"Y",
    "충전시설":"Y",
    "공기정화기":"Y",
    "decimalLatitude":null,
    "decimalLongitude":null
  },
  {
    "쉼터명":"용산형 스마트쉼터",
    "쉼터 종류":"스마트쉼터",
    "쉼터 유형":null,
    "주소":"한강진역. 블루스퀘어(03-180)",
    "운영시간":"05:00:00 ~ 익일 01:00:00",
    "휴무일":null,
    "운영시작일":null,
    "운영종료일":null,
    "설치장소":"한강진역. 블루스퀘어",
    "면적":null,
    "이용가능인원":null,
    "냉난방기":"Y",
    "추천날씨":"['폭염', '비', '눈', '한파', '미세먼지']",
    "실내\/외":"실내",
    "Wi-Fi":"Y",
    "충전시설":"Y",
    "공기정화기":"Y",
    "decimalLatitude":null,
    "decimalLongitude":null
  },
  {
    "쉼터명":"용산형 스마트쉼터",
    "쉼터 종류":"스마트쉼터",
    "쉼터 유형":null,
    "주소":"효창공원앞역. 이봉창역사울림관(03-180)",
    "운영시간":"05:00:00 ~ 익일 01:00:00",
    "휴무일":null,
    "운영시작일":null,
    "운영종료일":null,
    "설치장소":"효창공원앞역. 이봉창역사울림관",
    "면적":null,
    "이용가능인원":null,
    "냉난방기":"Y",
    "추천날씨":"['폭염', '비', '눈', '한파', '미세먼지']",
    "실내\/외":"실내",
    "Wi-Fi":"Y",
    "충전시설":"Y",
    "공기정화기":"Y",
    "decimalLatitude":null,
    "decimalLongitude":null
  },
  {
    "쉼터명":"용산형 스마트쉼터",
    "쉼터 종류":"스마트쉼터",
    "쉼터 유형":null,
    "주소":"순천향대학병원. 한남오거리(03-165)",
    "운영시간":"05:00:00 ~ 익일 01:00:00",
    "휴무일":null,
    "운영시작일":null,
    "운영종료일":null,
    "설치장소":"순천향대학병원. 한남오거리",
    "면적":null,
    "이용가능인원":null,
    "냉난방기":"Y",
    "추천날씨":"['폭염', '비', '눈', '한파', '미세먼지']",
    "실내\/외":"실내",
    "Wi-Fi":"Y",
    "충전시설":"Y",
    "공기정화기":"Y",
    "decimalLatitude":null,
    "decimalLongitude":null
  },
  {
    "쉼터명":"스마트쉼터",
    "쉼터 종류":"스마트쉼터",
    "쉼터 유형":null,
    "주소":"불광로 41",
    "운영시간":"05:00:00 ~ 익일 01:00:00",
    "휴무일":null,
    "운영시작일":null,
    "운영종료일":null,
    "설치장소":"불광초(불광역) 버스정류장",
    "면적":null,
    "이용가능인원":null,
    "냉난방기":"Y",
    "추천날씨":"['폭염', '비', '눈', '한파', '미세먼지']",
    "실내\/외":"실내",
    "Wi-Fi":"Y",
    "충전시설":"Y",
    "공기정화기":"Y",
    "decimalLatitude":37.61153088,
    "decimalLongitude":126.9302558
  },
  {
    "쉼터명":"스마트쉼터",
    "쉼터 종류":"스마트쉼터",
    "쉼터 유형":null,
    "주소":"서오릉로 165",
    "운영시간":"05:00:00 ~ 익일 01:00:00",
    "휴무일":null,
    "운영시작일":null,
    "운영종료일":null,
    "설치장소":"역촌중앙시장(구산역) 버스정류장",
    "면적":null,
    "이용가능인원":null,
    "냉난방기":"Y",
    "추천날씨":"['폭염', '비', '눈', '한파', '미세먼지']",
    "실내\/외":"실내",
    "Wi-Fi":"Y",
    "충전시설":"Y",
    "공기정화기":"Y",
    "decimalLatitude":37.61224035,
    "decimalLongitude":126.9150401
  },
  {
    "쉼터명":"스마트쉼터",
    "쉼터 종류":"스마트쉼터",
    "쉼터 유형":null,
    "주소":"서오릉로 253",
    "운영시간":"05:00:00 ~ 익일 01:00:00",
    "휴무일":null,
    "운영시작일":null,
    "운영종료일":null,
    "설치장소":"수국사입구 버스정류장",
    "면적":null,
    "이용가능인원":null,
    "냉난방기":"Y",
    "추천날씨":"['폭염', '비', '눈', '한파', '미세먼지']",
    "실내\/외":"실내",
    "Wi-Fi":"Y",
    "충전시설":"Y",
    "공기정화기":"Y",
    "decimalLatitude":37.61697084,
    "decimalLongitude":126.9063905
  },
  {
    "쉼터명":"스마트쉼터",
    "쉼터 종류":"스마트쉼터",
    "쉼터 유형":null,
    "주소":"연서로 214",
    "운영시간":"05:00:00 ~ 익일 01:00:00",
    "휴무일":null,
    "운영시작일":null,
    "운영종료일":null,
    "설치장소":"로데오거리(연신내역) 버스정류장",
    "면적":null,
    "이용가능인원":null,
    "냉난방기":"Y",
    "추천날씨":"['폭염', '비', '눈', '한파', '미세먼지']",
    "실내\/외":"실내",
    "Wi-Fi":"Y",
    "충전시설":"Y",
    "공기정화기":"Y",
    "decimalLatitude":37.6174451,
    "decimalLongitude":126.9199521
  },
  {
    "쉼터명":"스마트쉼터",
    "쉼터 종류":"스마트쉼터",
    "쉼터 유형":null,
    "주소":"서오릉로 74",
    "운영시간":"05:00:00 ~ 익일 01:00:00",
    "휴무일":null,
    "운영시작일":null,
    "운영종료일":null,
    "설치장소":"역촌오거리(역촌역) 버스정류장",
    "면적":null,
    "이용가능인원":null,
    "냉난방기":"Y",
    "추천날씨":"['폭염', '비', '눈', '한파', '미세먼지']",
    "실내\/외":"실내",
    "Wi-Fi":"Y",
    "충전시설":"Y",
    "공기정화기":"Y",
    "decimalLatitude":37.60706226,
    "decimalLongitude":126.9224901
  },
  {
    "쉼터명":"스마트쉼터",
    "쉼터 종류":"스마트쉼터",
    "쉼터 유형":null,
    "주소":"은평로 170",
    "운영시간":"05:00:00 ~ 익일 01:00:00",
    "휴무일":null,
    "운영시작일":null,
    "운영종료일":null,
    "설치장소":"은평세무서 버스정류장",
    "면적":null,
    "이용가능인원":null,
    "냉난방기":"Y",
    "추천날씨":"['폭염', '비', '눈', '한파', '미세먼지']",
    "실내\/외":"실내",
    "Wi-Fi":"Y",
    "충전시설":"Y",
    "공기정화기":"Y",
    "decimalLatitude":37.60108939,
    "decimalLongitude":126.9266624
  },
  {
    "쉼터명":"스마트쉼터",
    "쉼터 종류":"스마트쉼터",
    "쉼터 유형":null,
    "주소":"은평로 142",
    "운영시간":"05:00:00 ~ 익일 01:00:00",
    "휴무일":null,
    "운영시작일":null,
    "운영종료일":null,
    "설치장소":"서부병원 버스정류장",
    "면적":null,
    "이용가능인원":null,
    "냉난방기":"Y",
    "추천날씨":"['폭염', '비', '눈', '한파', '미세먼지']",
    "실내\/외":"실내",
    "Wi-Fi":"Y",
    "충전시설":"Y",
    "공기정화기":"Y",
    "decimalLatitude":37.60049443,
    "decimalLongitude":126.9234946
  },
  {
    "쉼터명":"스마트쉼터",
    "쉼터 종류":"스마트쉼터",
    "쉼터 유형":null,
    "주소":"은평로 63",
    "운영시간":"05:00:00 ~ 익일 01:00:00",
    "휴무일":null,
    "운영시작일":null,
    "운영종료일":null,
    "설치장소":"신사오거리(응암역) 버스정류장",
    "면적":null,
    "이용가능인원":null,
    "냉난방기":"Y",
    "추천날씨":"['폭염', '비', '눈', '한파', '미세먼지']",
    "실내\/외":"실내",
    "Wi-Fi":"Y",
    "충전시설":"Y",
    "공기정화기":"Y",
    "decimalLatitude":37.59907693,
    "decimalLongitude":126.9148463
  },
  {
    "쉼터명":"스마트쉼터",
    "쉼터 종류":"스마트쉼터",
    "쉼터 유형":null,
    "주소":"증산로 297",
    "운영시간":"05:00:00 ~ 익일 01:00:00",
    "휴무일":null,
    "운영시작일":null,
    "운영종료일":null,
    "설치장소":"증산역 버스정류장",
    "면적":null,
    "이용가능인원":null,
    "냉난방기":"Y",
    "추천날씨":"['폭염', '비', '눈', '한파', '미세먼지']",
    "실내\/외":"실내",
    "Wi-Fi":"Y",
    "충전시설":"Y",
    "공기정화기":"Y",
    "decimalLatitude":37.58382229,
    "decimalLongitude":126.9092374
  },
  {
    "쉼터명":"스마트쉼터",
    "쉼터 종류":"스마트쉼터",
    "쉼터 유형":null,
    "주소":"연서로 149",
    "운영시간":"05:00:00 ~ 익일 01:00:00",
    "휴무일":null,
    "운영시작일":null,
    "운영종료일":null,
    "설치장소":"구산역 4번출구(구산역) 버스정류장",
    "면적":null,
    "이용가능인원":null,
    "냉난방기":"Y",
    "추천날씨":"['폭염', '비', '눈', '한파', '미세먼지']",
    "실내\/외":"실내",
    "Wi-Fi":"Y",
    "충전시설":"Y",
    "공기정화기":"Y",
    "decimalLatitude":37.61221132,
    "decimalLongitude":126.916914
  },
  {
    "쉼터명":"스마트쉼터",
    "쉼터 종류":"스마트쉼터",
    "쉼터 유형":null,
    "주소":"백련산로 112",
    "운영시간":"05:00:00 ~ 익일 01:00:00",
    "휴무일":null,
    "운영시작일":null,
    "운영종료일":null,
    "설치장소":"응암2동주민센터 버스정류장",
    "면적":null,
    "이용가능인원":null,
    "냉난방기":"Y",
    "추천날씨":"['폭염', '비', '눈', '한파', '미세먼지']",
    "실내\/외":"실내",
    "Wi-Fi":"Y",
    "충전시설":"Y",
    "공기정화기":"Y",
    "decimalLatitude":37.59499718,
    "decimalLongitude":126.9233057
  },
  {
    "쉼터명":"그린스마트쉼터",
    "쉼터 종류":"스마트쉼터",
    "쉼터 유형":null,
    "주소":"강남구 압구정로 343",
    "운영시간":"05:00:00 ~ 익일 01:00:00",
    "휴무일":null,
    "운영시작일":null,
    "운영종료일":null,
    "설치장소":"한양아파트.압구정로데오역(23158)버스정류장",
    "면적":null,
    "이용가능인원":null,
    "냉난방기":"Y",
    "추천날씨":"['폭염', '비', '눈', '한파', '미세먼지']",
    "실내\/외":"실내",
    "Wi-Fi":"Y",
    "충전시설":"Y",
    "공기정화기":"Y",
    "decimalLatitude":37.52847544,
    "decimalLongitude":127.0400527
  },
  {
    "쉼터명":"그린스마트쉼터",
    "쉼터 종류":"스마트쉼터",
    "쉼터 유형":null,
    "주소":"강남구 학동로 425",
    "운영시간":"05:00:00 ~ 익일 01:00:00",
    "휴무일":null,
    "운영시작일":null,
    "운영종료일":null,
    "설치장소":"강남구청.강남세무서(23176)버스정류장",
    "면적":null,
    "이용가능인원":null,
    "냉난방기":"Y",
    "추천날씨":"['폭염', '비', '눈', '한파', '미세먼지']",
    "실내\/외":"실내",
    "Wi-Fi":"Y",
    "충전시설":"Y",
    "공기정화기":"Y",
    "decimalLatitude":37.51871603,
    "decimalLongitude":127.0469585
  },
  {
    "쉼터명":"그린스마트쉼터",
    "쉼터 종류":"스마트쉼터",
    "쉼터 유형":null,
    "주소":"강남구 테헤란로 521",
    "운영시간":"05:00:00 ~ 익일 01:00:00",
    "휴무일":null,
    "운영시작일":null,
    "운영종료일":null,
    "설치장소":"한국무역센터.삼성역(23201)버스정류장",
    "면적":null,
    "이용가능인원":null,
    "냉난방기":"Y",
    "추천날씨":"['폭염', '비', '눈', '한파', '미세먼지']",
    "실내\/외":"실내",
    "Wi-Fi":"Y",
    "충전시설":"Y",
    "공기정화기":"Y",
    "decimalLatitude":37.50919169,
    "decimalLongitude":127.0608069
  },
  {
    "쉼터명":"그린스마트쉼터",
    "쉼터 종류":"스마트쉼터",
    "쉼터 유형":null,
    "주소":"강남구 테헤란로 507",
    "운영시간":"05:00:00 ~ 익일 01:00:00",
    "휴무일":null,
    "운영시작일":null,
    "운영종료일":null,
    "설치장소":"포스코사거리(23514)버스정류장",
    "면적":null,
    "이용가능인원":null,
    "냉난방기":"Y",
    "추천날씨":"['폭염', '비', '눈', '한파', '미세먼지']",
    "실내\/외":"실내",
    "Wi-Fi":"Y",
    "충전시설":"Y",
    "공기정화기":"Y",
    "decimalLatitude":37.50766522,
    "decimalLongitude":127.0577262
  },
  {
    "쉼터명":"그린스마트쉼터",
    "쉼터 종류":"스마트쉼터",
    "쉼터 유형":null,
    "주소":"강남구 테헤란로 409",
    "운영시간":"05:00:00 ~ 익일 01:00:00",
    "휴무일":null,
    "운영시작일":null,
    "운영종료일":null,
    "설치장소":"선릉역(23241)버스정류장",
    "면적":null,
    "이용가능인원":null,
    "냉난방기":"Y",
    "추천날씨":"['폭염', '비', '눈', '한파', '미세먼지']",
    "실내\/외":"실내",
    "Wi-Fi":"Y",
    "충전시설":"Y",
    "공기정화기":"Y",
    "decimalLatitude":37.50536012,
    "decimalLongitude":127.0503869
  },
  {
    "쉼터명":"그린스마트쉼터",
    "쉼터 종류":"스마트쉼터",
    "쉼터 유형":null,
    "주소":"강남구 테헤란로 305",
    "운영시간":"05:00:00 ~ 익일 01:00:00",
    "휴무일":null,
    "운영시작일":null,
    "운영종료일":null,
    "설치장소":"서울상록회관.한국기술센터(23277)버스정류장",
    "면적":null,
    "이용가능인원":null,
    "냉난방기":"Y",
    "추천날씨":"['폭염', '비', '눈', '한파', '미세먼지']",
    "실내\/외":"실내",
    "Wi-Fi":"Y",
    "충전시설":"Y",
    "공기정화기":"Y",
    "decimalLatitude":37.50334062,
    "decimalLongitude":127.0437808
  },
  {
    "쉼터명":"그린스마트쉼터",
    "쉼터 종류":"스마트쉼터",
    "쉼터 유형":null,
    "주소":"강남구 테헤란로 207",
    "운영시간":"05:00:00 ~ 익일 01:00:00",
    "휴무일":null,
    "운영시작일":null,
    "운영종료일":null,
    "설치장소":"아가방빌딩.하나은행(23280)버스정류장",
    "면적":null,
    "이용가능인원":null,
    "냉난방기":"Y",
    "추천날씨":"['폭염', '비', '눈', '한파', '미세먼지']",
    "실내\/외":"실내",
    "Wi-Fi":"Y",
    "충전시설":"Y",
    "공기정화기":"Y",
    "decimalLatitude":37.50171193,
    "decimalLongitude":127.0387144
  },
  {
    "쉼터명":"그린스마트쉼터",
    "쉼터 종류":"스마트쉼터",
    "쉼터 유형":null,
    "주소":"강남구 테헤란로 134",
    "운영시간":"05:00:00 ~ 익일 01:00:00",
    "휴무일":null,
    "운영시작일":null,
    "운영종료일":null,
    "설치장소":"역삼역.포스코타워역삼(23288)버스정류장",
    "면적":null,
    "이용가능인원":null,
    "냉난방기":"Y",
    "추천날씨":"['폭염', '비', '눈', '한파', '미세먼지']",
    "실내\/외":"실내",
    "Wi-Fi":"Y",
    "충전시설":"Y",
    "공기정화기":"Y",
    "decimalLatitude":37.49937533,
    "decimalLongitude":127.0338034
  },
  {
    "쉼터명":"그린스마트쉼터",
    "쉼터 종류":"스마트쉼터",
    "쉼터 유형":null,
    "주소":"강남구 테헤란로 306",
    "운영시간":"05:00:00 ~ 익일 01:00:00",
    "휴무일":null,
    "운영시작일":null,
    "운영종료일":null,
    "설치장소":"한국자산신탁.센터필드(23306)버스정류장",
    "면적":null,
    "이용가능인원":null,
    "냉난방기":"Y",
    "추천날씨":"['폭염', '비', '눈', '한파', '미세먼지']",
    "실내\/외":"실내",
    "Wi-Fi":"Y",
    "충전시설":"Y",
    "공기정화기":"Y",
    "decimalLatitude":37.50259528,
    "decimalLongitude":127.044102
  },
  {
    "쉼터명":"그린스마트쉼터",
    "쉼터 종류":"스마트쉼터",
    "쉼터 유형":null,
    "주소":"강남구 테헤란로 408",
    "운영시간":"05:00:00 ~ 익일 01:00:00",
    "휴무일":null,
    "운영시작일":null,
    "운영종료일":null,
    "설치장소":"선릉역(23259)버스정류장",
    "면적":null,
    "이용가능인원":null,
    "냉난방기":"Y",
    "추천날씨":"['폭염', '비', '눈', '한파', '미세먼지']",
    "실내\/외":"실내",
    "Wi-Fi":"Y",
    "충전시설":"Y",
    "공기정화기":"Y",
    "decimalLatitude":37.50446821,
    "decimalLongitude":127.050387
  },
  {
    "쉼터명":"그린스마트쉼터",
    "쉼터 종류":"스마트쉼터",
    "쉼터 유형":null,
    "주소":"강남구 테헤란로 439",
    "운영시간":"05:00:00 ~ 익일 01:00:00",
    "휴무일":null,
    "운영시작일":null,
    "운영종료일":null,
    "설치장소":"포스코건너편(23217)버스정류장",
    "면적":null,
    "이용가능인원":null,
    "냉난방기":"Y",
    "추천날씨":"['폭염', '비', '눈', '한파', '미세먼지']",
    "실내\/외":"실내",
    "Wi-Fi":"Y",
    "충전시설":"Y",
    "공기정화기":"Y",
    "decimalLatitude":37.50682904,
    "decimalLongitude":127.0551873
  },
  {
    "쉼터명":"그린스마트쉼터",
    "쉼터 종류":"스마트쉼터",
    "쉼터 유형":null,
    "주소":"강남구 테헤란로 528",
    "운영시간":"05:00:00 ~ 익일 01:00:00",
    "휴무일":null,
    "운영시작일":null,
    "운영종료일":null,
    "설치장소":"한국무역센터.삼성역(23251)버스정류장",
    "면적":null,
    "이용가능인원":null,
    "냉난방기":"Y",
    "추천날씨":"['폭염', '비', '눈', '한파', '미세먼지']",
    "실내\/외":"실내",
    "Wi-Fi":"Y",
    "충전시설":"Y",
    "공기정화기":"Y",
    "decimalLatitude":37.50809527,
    "decimalLongitude":127.062
  },
  {
    "쉼터명":"그린스마트쉼터",
    "쉼터 종류":"스마트쉼터",
    "쉼터 유형":null,
    "주소":"강남구 도산대로 125",
    "운영시간":"05:00:00 ~ 익일 01:00:00",
    "휴무일":null,
    "운영시작일":null,
    "운영종료일":null,
    "설치장소":"신사역8번출구.가로수길(23108)버스정류장",
    "면적":null,
    "이용가능인원":null,
    "냉난방기":"Y",
    "추천날씨":"['폭염', '비', '눈', '한파', '미세먼지']",
    "실내\/외":"실내",
    "Wi-Fi":"Y",
    "충전시설":"Y",
    "공기정화기":"Y",
    "decimalLatitude":37.51757597,
    "decimalLongitude":127.0220526
  },
  {
    "쉼터명":"그린스마트쉼터",
    "쉼터 종류":"스마트쉼터",
    "쉼터 유형":null,
    "주소":"강남구 도산대로 157",
    "운영시간":"05:00:00 ~ 익일 01:00:00",
    "휴무일":null,
    "운영시작일":null,
    "운영종료일":null,
    "설치장소":"신사동고개(23107)버스정류장",
    "면적":null,
    "이용가능인원":null,
    "냉난방기":"Y",
    "추천날씨":"['폭염', '비', '눈', '한파', '미세먼지']",
    "실내\/외":"실내",
    "Wi-Fi":"Y",
    "충전시설":"Y",
    "공기정화기":"Y",
    "decimalLatitude":37.5190319,
    "decimalLongitude":127.0256428
  },
  {
    "쉼터명":"그린스마트쉼터",
    "쉼터 종류":"스마트쉼터",
    "쉼터 유형":null,
    "주소":"강남구 도산대로 217",
    "운영시간":"05:00:00 ~ 익일 01:00:00",
    "휴무일":null,
    "운영시작일":null,
    "운영종료일":null,
    "설치장소":"신사동교회(23151)버스정류장",
    "면적":null,
    "이용가능인원":null,
    "냉난방기":"Y",
    "추천날씨":"['폭염', '비', '눈', '한파', '미세먼지']",
    "실내\/외":"실내",
    "Wi-Fi":"Y",
    "충전시설":"Y",
    "공기정화기":"Y",
    "decimalLatitude":37.52082661,
    "decimalLongitude":127.0305602
  },
  {
    "쉼터명":"그린스마트쉼터",
    "쉼터 종류":"스마트쉼터",
    "쉼터 유형":null,
    "주소":"강남구 도산대로 305",
    "운영시간":"05:00:00 ~ 익일 01:00:00",
    "휴무일":null,
    "운영시작일":null,
    "운영종료일":null,
    "설치장소":"도산공원사거리(23155)버스정류장",
    "면적":null,
    "이용가능인원":null,
    "냉난방기":"Y",
    "추천날씨":"['폭염', '비', '눈', '한파', '미세먼지']",
    "실내\/외":"실내",
    "Wi-Fi":"Y",
    "충전시설":"Y",
    "공기정화기":"Y",
    "decimalLatitude":37.52215969,
    "decimalLongitude":127.0346308
  },
  {
    "쉼터명":"그린스마트쉼터",
    "쉼터 종류":"스마트쉼터",
    "쉼터 유형":null,
    "주소":"강남구 도산대로 327",
    "운영시간":"05:00:00 ~ 익일 01:00:00",
    "휴무일":null,
    "운영시작일":null,
    "운영종료일":null,
    "설치장소":"씨네시티.앞(23161)버스정류장",
    "면적":null,
    "이용가능인원":null,
    "냉난방기":"Y",
    "추천날씨":"['폭염', '비', '눈', '한파', '미세먼지']",
    "실내\/외":"실내",
    "Wi-Fi":"Y",
    "충전시설":"Y",
    "공기정화기":"Y",
    "decimalLatitude":37.52311961,
    "decimalLongitude":127.0375986
  },
  {
    "쉼터명":"그린스마트쉼터",
    "쉼터 종류":"스마트쉼터",
    "쉼터 유형":null,
    "주소":"강남구 도산대로 443",
    "운영시간":"05:00:00 ~ 익일 01:00:00",
    "휴무일":null,
    "운영시작일":null,
    "운영종료일":null,
    "설치장소":"농협앞(23180)버스정류장",
    "면적":null,
    "이용가능인원":null,
    "냉난방기":"Y",
    "추천날씨":"['폭염', '비', '눈', '한파', '미세먼지']",
    "실내\/외":"실내",
    "Wi-Fi":"Y",
    "충전시설":"Y",
    "공기정화기":"Y",
    "decimalLatitude":37.52416149,
    "decimalLongitude":127.044452
  },
  {
    "쉼터명":"그린스마트쉼터",
    "쉼터 종류":"스마트쉼터",
    "쉼터 유형":null,
    "주소":"강남구 도산대로 513",
    "운영시간":"05:00:00 ~ 익일 01:00:00",
    "휴무일":null,
    "운영시작일":null,
    "운영종료일":null,
    "설치장소":"청담동주민센터(23166)버스정류장",
    "면적":null,
    "이용가능인원":null,
    "냉난방기":"Y",
    "추천날씨":"['폭염', '비', '눈', '한파', '미세먼지']",
    "실내\/외":"실내",
    "Wi-Fi":"Y",
    "충전시설":"Y",
    "공기정화기":"Y",
    "decimalLatitude":37.52479416,
    "decimalLongitude":127.0494715
  },
  {
    "쉼터명":"그린스마트쉼터",
    "쉼터 종류":"스마트쉼터",
    "쉼터 유형":null,
    "주소":"강남구 도산대로 528",
    "운영시간":"05:00:00 ~ 익일 01:00:00",
    "휴무일":null,
    "운영시작일":null,
    "운영종료일":null,
    "설치장소":"청담동주민센터(23167)버스정류장",
    "면적":null,
    "이용가능인원":null,
    "냉난방기":"Y",
    "추천날씨":"['폭염', '비', '눈', '한파', '미세먼지']",
    "실내\/외":"실내",
    "Wi-Fi":"Y",
    "충전시설":"Y",
    "공기정화기":"Y",
    "decimalLatitude":null,
    "decimalLongitude":null
  },
  {
    "쉼터명":"그린스마트쉼터",
    "쉼터 종류":"스마트쉼터",
    "쉼터 유형":null,
    "주소":"강남구 도산대로 442",
    "운영시간":"05:00:00 ~ 익일 01:00:00",
    "휴무일":null,
    "운영시작일":null,
    "운영종료일":null,
    "설치장소":"차병원차움(23185)버스정류장",
    "면적":null,
    "이용가능인원":null,
    "냉난방기":"Y",
    "추천날씨":"['폭염', '비', '눈', '한파', '미세먼지']",
    "실내\/외":"실내",
    "Wi-Fi":"Y",
    "충전시설":"Y",
    "공기정화기":"Y",
    "decimalLatitude":37.52331116,
    "decimalLongitude":127.044119
  },
  {
    "쉼터명":"그린스마트쉼터",
    "쉼터 종류":"스마트쉼터",
    "쉼터 유형":null,
    "주소":"강남구 도산대로 330",
    "운영시간":"05:00:00 ~ 익일 01:00:00",
    "휴무일":null,
    "운영시작일":null,
    "운영종료일":null,
    "설치장소":"영동119.안전센터(23126)버스정류장",
    "면적":null,
    "이용가능인원":null,
    "냉난방기":"Y",
    "추천날씨":"['폭염', '비', '눈', '한파', '미세먼지']",
    "실내\/외":"실내",
    "Wi-Fi":"Y",
    "충전시설":"Y",
    "공기정화기":"Y",
    "decimalLatitude":37.52243874,
    "decimalLongitude":127.0381161
  },
  {
    "쉼터명":"그린스마트쉼터",
    "쉼터 종류":"스마트쉼터",
    "쉼터 유형":null,
    "주소":"강남구 도산대로 306",
    "운영시간":"05:00:00 ~ 익일 01:00:00",
    "휴무일":null,
    "운영시작일":null,
    "운영종료일":null,
    "설치장소":"제일은행.호림아트센터앞(23125)버스정류장",
    "면적":null,
    "이용가능인원":null,
    "냉난방기":"Y",
    "추천날씨":"['폭염', '비', '눈', '한파', '미세먼지']",
    "실내\/외":"실내",
    "Wi-Fi":"Y",
    "충전시설":"Y",
    "공기정화기":"Y",
    "decimalLatitude":37.52144386,
    "decimalLongitude":127.0348706
  },
  {
    "쉼터명":"그린스마트쉼터",
    "쉼터 종류":"스마트쉼터",
    "쉼터 유형":null,
    "주소":"강남구 도산대로 218",
    "운영시간":"05:00:00 ~ 익일 01:00:00",
    "휴무일":null,
    "운영시작일":null,
    "운영종료일":null,
    "설치장소":"언북중학교입구(23124)버스정류장",
    "면적":null,
    "이용가능인원":null,
    "냉난방기":"Y",
    "추천날씨":"['폭염', '비', '눈', '한파', '미세먼지']",
    "실내\/외":"실내",
    "Wi-Fi":"Y",
    "충전시설":"Y",
    "공기정화기":"Y",
    "decimalLatitude":37.52017493,
    "decimalLongitude":127.0308509
  },
  {
    "쉼터명":"그린스마트쉼터",
    "쉼터 종류":"스마트쉼터",
    "쉼터 유형":null,
    "주소":"강남구 도산대로 160",
    "운영시간":"05:00:00 ~ 익일 01:00:00",
    "휴무일":null,
    "운영시작일":null,
    "운영종료일":null,
    "설치장소":"신사동고개(23112)버스정류장",
    "면적":null,
    "이용가능인원":null,
    "냉난방기":"Y",
    "추천날씨":"['폭염', '비', '눈', '한파', '미세먼지']",
    "실내\/외":"실내",
    "Wi-Fi":"Y",
    "충전시설":"Y",
    "공기정화기":"Y",
    "decimalLatitude":null,
    "decimalLongitude":null
  },
  {
    "쉼터명":"그린스마트쉼터",
    "쉼터 종류":"스마트쉼터",
    "쉼터 유형":null,
    "주소":"강남구 도산대로 120",
    "운영시간":"05:00:00 ~ 익일 01:00:00",
    "휴무일":null,
    "운영시작일":null,
    "운영종료일":null,
    "설치장소":"신사역1번출구(23111)버스정류장",
    "면적":null,
    "이용가능인원":null,
    "냉난방기":"Y",
    "추천날씨":"['폭염', '비', '눈', '한파', '미세먼지']",
    "실내\/외":"실내",
    "Wi-Fi":"Y",
    "충전시설":"Y",
    "공기정화기":"Y",
    "decimalLatitude":37.51673339,
    "decimalLongitude":127.0218773
  },
  {
    "쉼터명":"그린스마트쉼터",
    "쉼터 종류":"스마트쉼터",
    "쉼터 유형":null,
    "주소":"강남구 학동로 108",
    "운영시간":"05:00:00 ~ 익일 01:00:00",
    "휴무일":null,
    "운영시작일":null,
    "운영종료일":null,
    "설치장소":"영동시장(23117)버스정류장",
    "면적":null,
    "이용가능인원":null,
    "냉난방기":"Y",
    "추천날씨":"['폭염', '비', '눈', '한파', '미세먼지']",
    "실내\/외":"실내",
    "Wi-Fi":"Y",
    "충전시설":"Y",
    "공기정화기":"Y",
    "decimalLatitude":null,
    "decimalLongitude":null
  },
  {
    "쉼터명":"그린스마트쉼터",
    "쉼터 종류":"스마트쉼터",
    "쉼터 유형":null,
    "주소":"강남구 학동로 171",
    "운영시간":"05:00:00 ~ 익일 01:00:00",
    "휴무일":null,
    "운영시작일":null,
    "운영종료일":null,
    "설치장소":"논현동사거리.학동역(23115)버스정류장",
    "면적":null,
    "이용가능인원":null,
    "냉난방기":"Y",
    "추천날씨":"['폭염', '비', '눈', '한파', '미세먼지']",
    "실내\/외":"실내",
    "Wi-Fi":"Y",
    "충전시설":"Y",
    "공기정화기":"Y",
    "decimalLatitude":37.51404673,
    "decimalLongitude":127.0295507
  },
  {
    "쉼터명":"그린스마트쉼터",
    "쉼터 종류":"스마트쉼터",
    "쉼터 유형":null,
    "주소":"강남구 학동로 308",
    "운영시간":"05:00:00 ~ 익일 01:00:00",
    "휴무일":null,
    "운영시작일":null,
    "운영종료일":null,
    "설치장소":"세관앞(23134)버스정류장",
    "면적":null,
    "이용가능인원":null,
    "냉난방기":"Y",
    "추천날씨":"['폭염', '비', '눈', '한파', '미세먼지']",
    "실내\/외":"실내",
    "Wi-Fi":"Y",
    "충전시설":"Y",
    "공기정화기":"Y",
    "decimalLatitude":37.51544488,
    "decimalLongitude":127.0364112
  },
  {
    "쉼터명":"그린스마트쉼터",
    "쉼터 종류":"스마트쉼터",
    "쉼터 유형":null,
    "주소":"강남구 학동로 337",
    "운영시간":"05:00:00 ~ 익일 01:00:00",
    "휴무일":null,
    "운영시작일":null,
    "운영종료일":null,
    "설치장소":"강남구청역(23128)버스정류장",
    "면적":null,
    "이용가능인원":null,
    "냉난방기":"Y",
    "추천날씨":"['폭염', '비', '눈', '한파', '미세먼지']",
    "실내\/외":"실내",
    "Wi-Fi":"Y",
    "충전시설":"Y",
    "공기정화기":"Y",
    "decimalLatitude":37.51707186,
    "decimalLongitude":127.039928
  },
  {
    "쉼터명":"그린스마트쉼터",
    "쉼터 종류":"스마트쉼터",
    "쉼터 유형":null,
    "주소":"강남구 학동로 336",
    "운영시간":"05:00:00 ~ 익일 01:00:00",
    "휴무일":null,
    "운영시작일":null,
    "운영종료일":null,
    "설치장소":"강남구청역(23135)버스정류장",
    "면적":null,
    "이용가능인원":null,
    "냉난방기":"Y",
    "추천날씨":"['폭염', '비', '눈', '한파', '미세먼지']",
    "실내\/외":"실내",
    "Wi-Fi":"Y",
    "충전시설":"Y",
    "공기정화기":"Y",
    "decimalLatitude":37.51638873,
    "decimalLongitude":127.039627
  },
  {
    "쉼터명":"그린스마트쉼터",
    "쉼터 종류":"스마트쉼터",
    "쉼터 유형":null,
    "주소":"강남구 학동로 426",
    "운영시간":"05:00:00 ~ 익일 01:00:00",
    "휴무일":null,
    "운영시작일":null,
    "운영종료일":null,
    "설치장소":"강남구청.강남세무서(23206)버스정류장",
    "면적":null,
    "이용가능인원":null,
    "냉난방기":"Y",
    "추천날씨":"['폭염', '비', '눈', '한파', '미세먼지']",
    "실내\/외":"실내",
    "Wi-Fi":"Y",
    "충전시설":"Y",
    "공기정화기":"Y",
    "decimalLatitude":37.51796816,
    "decimalLongitude":127.0470598
  },
  {
    "쉼터명":"스마트쉼터",
    "쉼터 종류":"스마트쉼터",
    "쉼터 유형":null,
    "주소":" 중랑구 면목로 418",
    "운영시간":"05:00:00 ~ 익일 01:00:00",
    "휴무일":null,
    "운영시작일":null,
    "운영종료일":null,
    "설치장소":"07-171 면목역 버스정류장",
    "면적":null,
    "이용가능인원":null,
    "냉난방기":"Y",
    "추천날씨":"['폭염', '비', '눈', '한파', '미세먼지']",
    "실내\/외":"실내",
    "Wi-Fi":"Y",
    "충전시설":"Y",
    "공기정화기":"Y",
    "decimalLatitude":37.58924296,
    "decimalLongitude":127.0876287
  },
  {
    "쉼터명":"스마트쉼터",
    "쉼터 종류":"스마트쉼터",
    "쉼터 유형":null,
    "주소":" 중랑구 면목로 475",
    "운영시간":"05:00:00 ~ 익일 01:00:00",
    "휴무일":null,
    "운영시작일":null,
    "운영종료일":null,
    "설치장소":"07-167 상봉역 버스정류장",
    "면적":null,
    "이용가능인원":null,
    "냉난방기":"Y",
    "추천날씨":"['폭염', '비', '눈', '한파', '미세먼지']",
    "실내\/외":"실내",
    "Wi-Fi":"Y",
    "충전시설":"Y",
    "공기정화기":"Y",
    "decimalLatitude":37.59426783,
    "decimalLongitude":127.0858602
  },
  {
    "쉼터명":"스마트쉼터",
    "쉼터 종류":"스마트쉼터",
    "쉼터 유형":null,
    "주소":"중랑구 면목로 327",
    "운영시간":"05:00:00 ~ 익일 01:00:00",
    "휴무일":null,
    "운영시작일":null,
    "운영종료일":null,
    "설치장소":"07-179 사가정역 버스정류장",
    "면적":null,
    "이용가능인원":null,
    "냉난방기":"Y",
    "추천날씨":"['폭염', '비', '눈', '한파', '미세먼지']",
    "실내\/외":"실내",
    "Wi-Fi":"Y",
    "충전시설":"Y",
    "공기정화기":"Y",
    "decimalLatitude":null,
    "decimalLongitude":null
  },
  {
    "쉼터명":"스마트쉼터",
    "쉼터 종류":"스마트쉼터",
    "쉼터 유형":null,
    "주소":"중랑구 사가정로 386",
    "운영시간":"05:00:00 ~ 익일 01:00:00",
    "휴무일":null,
    "운영시작일":null,
    "운영종료일":null,
    "설치장소":"07-247 사가정역 버스정류장",
    "면적":null,
    "이용가능인원":null,
    "냉난방기":"Y",
    "추천날씨":"['폭염', '비', '눈', '한파', '미세먼지']",
    "실내\/외":"실내",
    "Wi-Fi":"Y",
    "충전시설":"Y",
    "공기정화기":"Y",
    "decimalLatitude":null,
    "decimalLongitude":null
  },
  {
    "쉼터명":"스마트쉘터",
    "쉼터 종류":"스마트쉼터",
    "쉼터 유형":null,
    "주소":"도봉구 도봉로 470-1",
    "운영시간":"05:00:00 ~ 익일 01:00:00",
    "휴무일":null,
    "운영시작일":null,
    "운영종료일":null,
    "설치장소":"시내버스정류소",
    "면적":null,
    "이용가능인원":null,
    "냉난방기":"Y",
    "추천날씨":"['폭염', '비', '눈', '한파', '미세먼지']",
    "실내\/외":"실내",
    "Wi-Fi":"Y",
    "충전시설":"Y",
    "공기정화기":"Y",
    "decimalLatitude":37.6475529,
    "decimalLongitude":127.0342735
  },
  {
    "쉼터명":"스마트쉘터",
    "쉼터 종류":"스마트쉼터",
    "쉼터 유형":null,
    "주소":"도봉구 방학로 217-1",
    "운영시간":"05:00:00 ~ 익일 01:00:00",
    "휴무일":null,
    "운영시작일":null,
    "운영종료일":null,
    "설치장소":"시내버스정류소",
    "면적":null,
    "이용가능인원":null,
    "냉난방기":"Y",
    "추천날씨":"['폭염', '비', '눈', '한파', '미세먼지']",
    "실내\/외":"실내",
    "Wi-Fi":"Y",
    "충전시설":"Y",
    "공기정화기":"Y",
    "decimalLatitude":37.66171916,
    "decimalLongitude":127.0280348
  },
  {
    "쉼터명":"스마트쉘터",
    "쉼터 종류":"스마트쉼터",
    "쉼터 유형":null,
    "주소":"도봉구 도봉로 552",
    "운영시간":"05:00:00 ~ 익일 01:00:00",
    "휴무일":null,
    "운영시작일":null,
    "운영종료일":null,
    "설치장소":"시내버스정류소",
    "면적":null,
    "이용가능인원":null,
    "냉난방기":"Y",
    "추천날씨":"['폭염', '비', '눈', '한파', '미세먼지']",
    "실내\/외":"실내",
    "Wi-Fi":"Y",
    "충전시설":"Y",
    "공기정화기":"Y",
    "decimalLatitude":37.65419928,
    "decimalLongitude":127.0388705
  },
  {
    "쉼터명":"스마트쉘터",
    "쉼터 종류":"스마트쉼터",
    "쉼터 유형":null,
    "주소":"도봉구 방학동 726-74",
    "운영시간":"05:00:00 ~ 익일 01:00:00",
    "휴무일":null,
    "운영시작일":null,
    "운영종료일":null,
    "설치장소":"시내버스정류소",
    "면적":null,
    "이용가능인원":null,
    "냉난방기":"Y",
    "추천날씨":"['폭염', '비', '눈', '한파', '미세먼지']",
    "실내\/외":"실내",
    "Wi-Fi":"Y",
    "충전시설":"Y",
    "공기정화기":"Y",
    "decimalLatitude":37.66638665,
    "decimalLongitude":127.0462124
  },
  {
    "쉼터명":"스마트쉘터",
    "쉼터 종류":"스마트쉼터",
    "쉼터 유형":null,
    "주소":"도봉구 노해로 133",
    "운영시간":"05:00:00 ~ 익일 01:00:00",
    "휴무일":null,
    "운영시작일":null,
    "운영종료일":null,
    "설치장소":"시내버스정류소",
    "면적":null,
    "이용가능인원":null,
    "냉난방기":"Y",
    "추천날씨":"['폭염', '비', '눈', '한파', '미세먼지']",
    "실내\/외":"실내",
    "Wi-Fi":"Y",
    "충전시설":"Y",
    "공기정화기":"Y",
    "decimalLatitude":37.6470763,
    "decimalLongitude":127.0252578
  },
  {
    "쉼터명":"스마트쉘터",
    "쉼터 종류":"스마트쉼터",
    "쉼터 유형":null,
    "주소":"도봉구 도봉동 637-53",
    "운영시간":"05:00:00 ~ 익일 01:00:00",
    "휴무일":null,
    "운영시작일":null,
    "운영종료일":null,
    "설치장소":"시내버스정류소",
    "면적":null,
    "이용가능인원":null,
    "냉난방기":"Y",
    "추천날씨":"['폭염', '비', '눈', '한파', '미세먼지']",
    "실내\/외":"실내",
    "Wi-Fi":"Y",
    "충전시설":"Y",
    "공기정화기":"Y",
    "decimalLatitude":37.68023918,
    "decimalLongitude":127.0471947
  },
  {
    "쉼터명":"스마트쉘터",
    "쉼터 종류":"스마트쉼터",
    "쉼터 유형":null,
    "주소":"창천동 31-27(투썸플레이스)",
    "운영시간":"05:00:00 ~ 익일 01:00:00",
    "휴무일":null,
    "운영시작일":null,
    "운영종료일":null,
    "설치장소":"연세로명물거리(13-145)",
    "면적":null,
    "이용가능인원":null,
    "냉난방기":"Y",
    "추천날씨":"['폭염', '비', '눈', '한파', '미세먼지']",
    "실내\/외":"실내",
    "Wi-Fi":"Y",
    "충전시설":"Y",
    "공기정화기":"Y",
    "decimalLatitude":37.55808757,
    "decimalLongitude":126.937139
  },
  {
    "쉼터명":"스마트쉘터",
    "쉼터 종류":"스마트쉼터",
    "쉼터 유형":null,
    "주소":"남가좌동 385(초록마을)",
    "운영시간":"05:00:00 ~ 익일 01:00:00",
    "휴무일":null,
    "운영시작일":null,
    "운영종료일":null,
    "설치장소":"DMC파크뷰자이(13-180)",
    "면적":null,
    "이용가능인원":null,
    "냉난방기":"Y",
    "추천날씨":"['폭염', '비', '눈', '한파', '미세먼지']",
    "실내\/외":"실내",
    "Wi-Fi":"Y",
    "충전시설":"Y",
    "공기정화기":"Y",
    "decimalLatitude":37.57225793,
    "decimalLongitude":126.9178372
  },
  {
    "쉼터명":"스마트쉘터",
    "쉼터 종류":"스마트쉼터",
    "쉼터 유형":null,
    "주소":"남가좌동 381(영진공인중개사)",
    "운영시간":"05:00:00 ~ 익일 01:00:00",
    "휴무일":null,
    "운영시작일":null,
    "운영종료일":null,
    "설치장소":"DMC센트레빌(13-188)",
    "면적":null,
    "이용가능인원":null,
    "냉난방기":"Y",
    "추천날씨":"['폭염', '비', '눈', '한파', '미세먼지']",
    "실내\/외":"실내",
    "Wi-Fi":"Y",
    "충전시설":"Y",
    "공기정화기":"Y",
    "decimalLatitude":37.57616351,
    "decimalLongitude":126.9157142
  },
  {
    "쉼터명":"스마트쉘터",
    "쉼터 종류":"스마트쉼터",
    "쉼터 유형":null,
    "주소":"남가좌동 385(팔각도)",
    "운영시간":"05:00:00 ~ 익일 01:00:00",
    "휴무일":null,
    "운영시작일":null,
    "운영종료일":null,
    "설치장소":"DMC센트레빌(13-189)",
    "면적":null,
    "이용가능인원":null,
    "냉난방기":"Y",
    "추천날씨":"['폭염', '비', '눈', '한파', '미세먼지']",
    "실내\/외":"실내",
    "Wi-Fi":"Y",
    "충전시설":"Y",
    "공기정화기":"Y",
    "decimalLatitude":37.57225793,
    "decimalLongitude":126.9178372
  },
  {
    "쉼터명":"스마트쉘터",
    "쉼터 종류":"스마트쉼터",
    "쉼터 유형":null,
    "주소":"남가좌동 385(sk텔레콤)",
    "운영시간":"05:00:00 ~ 익일 01:00:00",
    "휴무일":null,
    "운영시작일":null,
    "운영종료일":null,
    "설치장소":"DMC파크뷰자이(13-339)",
    "면적":null,
    "이용가능인원":null,
    "냉난방기":"Y",
    "추천날씨":"['폭염', '비', '눈', '한파', '미세먼지']",
    "실내\/외":"실내",
    "Wi-Fi":"Y",
    "충전시설":"Y",
    "공기정화기":"Y",
    "decimalLatitude":37.57225793,
    "decimalLongitude":126.9178372
  },
  {
    "쉼터명":"스마트쉘터",
    "쉼터 종류":"스마트쉼터",
    "쉼터 유형":null,
    "주소":"창천동 18-50(신촌역3번출구)",
    "운영시간":"05:00:00 ~ 익일 01:00:00",
    "휴무일":null,
    "운영시작일":null,
    "운영종료일":null,
    "설치장소":"신촌전철역(13-802)",
    "면적":null,
    "이용가능인원":null,
    "냉난방기":"Y",
    "추천날씨":"['폭염', '비', '눈', '한파', '미세먼지']",
    "실내\/외":"실내",
    "Wi-Fi":"Y",
    "충전시설":"Y",
    "공기정화기":"Y",
    "decimalLatitude":37.55574439,
    "decimalLongitude":126.9372146
  },
  {
    "쉼터명":"스마트쉼터",
    "쉼터 종류":"스마트쉼터",
    "쉼터 유형":null,
    "주소":"서울시 구로구 구로동 2-11",
    "운영시간":"05:00:00 ~ 익일 01:00:00",
    "휴무일":null,
    "운영시작일":null,
    "운영종료일":null,
    "설치장소":"신도림역 버스정류장(17102) 측면",
    "면적":null,
    "이용가능인원":null,
    "냉난방기":"Y",
    "추천날씨":"['폭염', '비', '눈', '한파', '미세먼지']",
    "실내\/외":"실내",
    "Wi-Fi":"Y",
    "충전시설":"Y",
    "공기정화기":"Y",
    "decimalLatitude":37.50711952,
    "decimalLongitude":126.8915814
  },
  {
    "쉼터명":"스마트쉼터",
    "쉼터 종류":"스마트쉼터",
    "쉼터 유형":null,
    "주소":"서울시 구로구 부일로 878-1",
    "운영시간":"05:00:00 ~ 익일 01:00:00",
    "휴무일":null,
    "운영시작일":null,
    "운영종료일":null,
    "설치장소":"온수역 버스정류장(17185) 측면",
    "면적":null,
    "이용가능인원":null,
    "냉난방기":"Y",
    "추천날씨":"['폭염', '비', '눈', '한파', '미세먼지']",
    "실내\/외":"실내",
    "Wi-Fi":"Y",
    "충전시설":"Y",
    "공기정화기":"Y",
    "decimalLatitude":null,
    "decimalLongitude":null
  },
  {
    "쉼터명":"강동형 스마트 에코쉘터",
    "쉼터 종류":"스마트쉼터",
    "쉼터 유형":null,
    "주소":"올림픽로566 인근",
    "운영시간":"05:00:00 ~ 익일 01:00:00",
    "휴무일":null,
    "운영시작일":null,
    "운영종료일":null,
    "설치장소":"강동구청역1번출구.영파여고 버스정류소",
    "면적":null,
    "이용가능인원":null,
    "냉난방기":"Y",
    "추천날씨":"['폭염', '비', '눈', '한파', '미세먼지']",
    "실내\/외":"실내",
    "Wi-Fi":"Y",
    "충전시설":"Y",
    "공기정화기":"Y",
    "decimalLatitude":37.53210021,
    "decimalLongitude":127.1214382
  },
  {
    "쉼터명":"강동형 스마트 에코쉘터",
    "쉼터 종류":"스마트쉼터",
    "쉼터 유형":null,
    "주소":"천호대로 1033 인근",
    "운영시간":"05:00:00 ~ 익일 01:00:00",
    "휴무일":null,
    "운영시작일":null,
    "운영종료일":null,
    "설치장소":"천호역5번출구.천호사거리 버스정류소",
    "면적":null,
    "이용가능인원":null,
    "냉난방기":"Y",
    "추천날씨":"['폭염', '비', '눈', '한파', '미세먼지']",
    "실내\/외":"실내",
    "Wi-Fi":"Y",
    "충전시설":"Y",
    "공기정화기":"Y",
    "decimalLatitude":37.5378954,
    "decimalLongitude":127.126958
  },
  {
    "쉼터명":"강동형 스마트 에코쉘터",
    "쉼터 종류":"스마트쉼터",
    "쉼터 유형":null,
    "주소":"올릭픽로 659 인근",
    "운영시간":"05:00:00 ~ 익일 01:00:00",
    "휴무일":null,
    "운영시작일":null,
    "운영종료일":null,
    "설치장소":"천호역2번출구.현대백화점 버스정류소",
    "면적":null,
    "이용가능인원":null,
    "냉난방기":"Y",
    "추천날씨":"['폭염', '비', '눈', '한파', '미세먼지']",
    "실내\/외":"실내",
    "Wi-Fi":"Y",
    "충전시설":"Y",
    "공기정화기":"Y",
    "decimalLatitude":null,
    "decimalLongitude":null
  },
  {
    "쉼터명":"강동형 스마트 에코쉘터",
    "쉼터 종류":"스마트쉼터",
    "쉼터 유형":null,
    "주소":"고덕로 391 인근",
    "운영시간":"05:00:00 ~ 익일 01:00:00",
    "휴무일":null,
    "운영시작일":null,
    "운영종료일":null,
    "설치장소":"상일동역4번출구.센트럴푸르지오 버스정류소",
    "면적":null,
    "이용가능인원":null,
    "냉난방기":"Y",
    "추천날씨":"['폭염', '비', '눈', '한파', '미세먼지']",
    "실내\/외":"실내",
    "Wi-Fi":"Y",
    "충전시설":"Y",
    "공기정화기":"Y",
    "decimalLatitude":37.55722601,
    "decimalLongitude":127.1689785
  },
  {
    "쉼터명":"강동형 스마트 에코쉘터",
    "쉼터 종류":"스마트쉼터",
    "쉼터 유형":null,
    "주소":"동남로 885 인근",
    "운영시간":"05:00:00 ~ 익일 01:00:00",
    "휴무일":null,
    "운영시작일":null,
    "운영종료일":null,
    "설치장소":"강동아트센터.강동경희대병원 버스정류소",
    "면적":null,
    "이용가능인원":null,
    "냉난방기":"Y",
    "추천날씨":"['폭염', '비', '눈', '한파', '미세먼지']",
    "실내\/외":"실내",
    "Wi-Fi":"Y",
    "충전시설":"Y",
    "공기정화기":"Y",
    "decimalLatitude":37.55265359,
    "decimalLongitude":127.155976
  },
  {
    "쉼터명":"강동형 스마트 에코쉘터",
    "쉼터 종류":"스마트쉼터",
    "쉼터 유형":null,
    "주소":"고덕로 353 인근",
    "운영시간":"05:00:00 ~ 익일 01:00:00",
    "휴무일":null,
    "운영시작일":null,
    "운영종료일":null,
    "설치장소":"상일동역1번출구 버스정류소",
    "면적":null,
    "이용가능인원":null,
    "냉난방기":"Y",
    "추천날씨":"['폭염', '비', '눈', '한파', '미세먼지']",
    "실내\/외":"실내",
    "Wi-Fi":"Y",
    "충전시설":"Y",
    "공기정화기":"Y",
    "decimalLatitude":37.5571351,
    "decimalLongitude":127.1645103
  },
  {
    "쉼터명":"강동형 스마트 에코쉘터",
    "쉼터 종류":"스마트쉼터",
    "쉼터 유형":null,
    "주소":"고덕로 131 인근",
    "운영시간":"05:00:00 ~ 익일 01:00:00",
    "휴무일":null,
    "운영시작일":null,
    "운영종료일":null,
    "설치장소":"명일초등학교 버스정류소",
    "면적":null,
    "이용가능인원":null,
    "냉난방기":"Y",
    "추천날씨":"['폭염', '비', '눈', '한파', '미세먼지']",
    "실내\/외":"실내",
    "Wi-Fi":"Y",
    "충전시설":"Y",
    "공기정화기":"Y",
    "decimalLatitude":37.55516675,
    "decimalLongitude":127.1438388
  },
  {
    "쉼터명":"스마트 안심쉼터",
    "쉼터 종류":"스마트쉼터",
    "쉼터 유형":null,
    "주소":"서울시 광진구 구의3동 546-2",
    "운영시간":"05:00:00 ~ 익일 01:00:00",
    "휴무일":null,
    "운영시작일":null,
    "운영종료일":null,
    "설치장소":"구의어린이공원",
    "면적":null,
    "이용가능인원":null,
    "냉난방기":"Y",
    "추천날씨":"['폭염', '비', '눈', '한파', '미세먼지']",
    "실내\/외":"실내",
    "Wi-Fi":"Y",
    "충전시설":"Y",
    "공기정화기":"Y",
    "decimalLatitude":37.53696636,
    "decimalLongitude":127.0946162
  },
  {
    "쉼터명":"스마트 안심쉼터",
    "쉼터 종류":"스마트쉼터",
    "쉼터 유형":null,
    "주소":"서울시 광진구 중곡4동 68-19",
    "운영시간":"05:00:00 ~ 익일 01:00:00",
    "휴무일":null,
    "운영시작일":null,
    "운영종료일":null,
    "설치장소":"긴고랑어린이공원",
    "면적":null,
    "이용가능인원":null,
    "냉난방기":"Y",
    "추천날씨":"['폭염', '비', '눈', '한파', '미세먼지']",
    "실내\/외":"실내",
    "Wi-Fi":"Y",
    "충전시설":"Y",
    "공기정화기":"Y",
    "decimalLatitude":37.55895259,
    "decimalLongitude":127.0909738
  },
  {
    "쉼터명":"스마트 안심쉼터",
    "쉼터 종류":"스마트쉼터",
    "쉼터 유형":null,
    "주소":"서울시 광진구 구의3동 206-10",
    "운영시간":"05:00:00 ~ 익일 01:00:00",
    "휴무일":null,
    "운영시작일":null,
    "운영종료일":null,
    "설치장소":"무궁화어린이공원",
    "면적":null,
    "이용가능인원":null,
    "냉난방기":"Y",
    "추천날씨":"['폭염', '비', '눈', '한파', '미세먼지']",
    "실내\/외":"실내",
    "Wi-Fi":"Y",
    "충전시설":"Y",
    "공기정화기":"Y",
    "decimalLatitude":37.5412689,
    "decimalLongitude":127.0943932
  },
  {
    "쉼터명":"스마트 안심쉼터",
    "쉼터 종류":"스마트쉼터",
    "쉼터 유형":null,
    "주소":"서울시 광진구 구의2동 60-8",
    "운영시간":"05:00:00 ~ 익일 01:00:00",
    "휴무일":null,
    "운영시작일":null,
    "운영종료일":null,
    "설치장소":"구둘어린이공원",
    "면적":null,
    "이용가능인원":null,
    "냉난방기":"Y",
    "추천날씨":"['폭염', '비', '눈', '한파', '미세먼지']",
    "실내\/외":"실내",
    "Wi-Fi":"Y",
    "충전시설":"Y",
    "공기정화기":"Y",
    "decimalLatitude":37.54823508,
    "decimalLongitude":127.0922104
  },
  {
    "쉼터명":"스마트 안심쉼터",
    "쉼터 종류":"스마트쉼터",
    "쉼터 유형":null,
    "주소":"서울시 광진구 구의3동 216-5",
    "운영시간":"05:00:00 ~ 익일 01:00:00",
    "휴무일":null,
    "운영시작일":null,
    "운영종료일":null,
    "설치장소":"개나리어린이공원",
    "면적":null,
    "이용가능인원":null,
    "냉난방기":"Y",
    "추천날씨":"['폭염', '비', '눈', '한파', '미세먼지']",
    "실내\/외":"실내",
    "Wi-Fi":"Y",
    "충전시설":"Y",
    "공기정화기":"Y",
    "decimalLatitude":37.53803456,
    "decimalLongitude":127.0923713
  },
  {
    "쉼터명":"스마트 안심쉼터",
    "쉼터 종류":"스마트쉼터",
    "쉼터 유형":null,
    "주소":"서울시 광진구 화양동 32-1",
    "운영시간":"05:00:00 ~ 익일 01:00:00",
    "휴무일":null,
    "운영시작일":null,
    "운영종료일":null,
    "설치장소":"가중나무어린이공원",
    "면적":null,
    "이용가능인원":null,
    "냉난방기":"Y",
    "추천날씨":"['폭염', '비', '눈', '한파', '미세먼지']",
    "실내\/외":"실내",
    "Wi-Fi":"Y",
    "충전시설":"Y",
    "공기정화기":"Y",
    "decimalLatitude":37.54638415,
    "decimalLongitude":127.0679013
  },
  {
    "쉼터명":"스마트쉼터(공사중, LH)",
    "쉼터 종류":"스마트쉼터",
    "쉼터 유형":null,
    "주소":"중랑구",
    "운영시간":"05:00:00 ~ 익일 01:00:00",
    "휴무일":null,
    "운영시작일":null,
    "운영종료일":null,
    "설치장소":"07-333 양원리 버스정류장",
    "면적":null,
    "이용가능인원":null,
    "냉난방기":"Y",
    "추천날씨":"['폭염', '비', '눈', '한파', '미세먼지']",
    "실내\/외":"실내",
    "Wi-Fi":"Y",
    "충전시설":"Y",
    "공기정화기":"Y",
    "decimalLatitude":37.60654324,
    "decimalLongitude":127.0928203
  },
  {
    "쉼터명":"스마트쉼터(공사중 LH)",
    "쉼터 종류":"스마트쉼터",
    "쉼터 유형":null,
    "주소":"중랑구",
    "운영시간":"05:00:00 ~ 익일 01:00:00",
    "휴무일":null,
    "운영시작일":null,
    "운영종료일":null,
    "설치장소":"07-334 양원리 버스정류장",
    "면적":null,
    "이용가능인원":null,
    "냉난방기":"Y",
    "추천날씨":"['폭염', '비', '눈', '한파', '미세먼지']",
    "실내\/외":"실내",
    "Wi-Fi":"Y",
    "충전시설":"Y",
    "공기정화기":"Y",
    "decimalLatitude":37.60654324,
    "decimalLongitude":127.0928203
  }
]