[
  {
    "쉼터명":"고정형 그늘막",
    "쉼터 종류":"그늘막",
    "쉼터 유형":"고정형",
    "주소":"서울특별시 종로구 자하문로 92   (궁정동)",
    "운영시간":null,
    "휴무일":null,
    "운영시작일":null,
    "운영종료일":null,
    "설치장소":null,
    "면적":null,
    "이용가능인원":null,
    "냉난방기":"N",
    "추천날씨":"폭염",
    "실내\/외":"실외",
    "Wi-Fi":null,
    "충전시설":"N",
    "공기정화기":null,
    "decimalLatitude":37.58409211,
    "decimalLongitude":126.9706207
  },
  {
    "쉼터명":"고정형 그늘막",
    "쉼터 종류":"그늘막",
    "쉼터 유형":"고정형",
    "주소":"서울특별시 종로구 사직로9길 5   (사직동)",
    "운영시간":null,
    "휴무일":null,
    "운영시작일":null,
    "운영종료일":null,
    "설치장소":null,
    "면적":null,
    "이용가능인원":null,
    "냉난방기":"N",
    "추천날씨":"폭염",
    "실내\/외":"실외",
    "Wi-Fi":null,
    "충전시설":"N",
    "공기정화기":null,
    "decimalLatitude":37.57630701,
    "decimalLongitude":126.9686207
  },
  {
    "쉼터명":"고정형 그늘막",
    "쉼터 종류":"그늘막",
    "쉼터 유형":"고정형",
    "주소":"서울특별시 종로구 자하문로 1   (내자동)",
    "운영시간":null,
    "휴무일":null,
    "운영시작일":null,
    "운영종료일":null,
    "설치장소":null,
    "면적":null,
    "이용가능인원":null,
    "냉난방기":"N",
    "추천날씨":"폭염",
    "실내\/외":"실외",
    "Wi-Fi":null,
    "충전시설":"N",
    "공기정화기":null,
    "decimalLatitude":37.57631982,
    "decimalLongitude":126.9722819
  },
  {
    "쉼터명":"고정형 그늘막",
    "쉼터 종류":"그늘막",
    "쉼터 유형":"고정형",
    "주소":"서울특별시 종로구 세종대로 149   (세종로)",
    "운영시간":null,
    "휴무일":null,
    "운영시작일":null,
    "운영종료일":null,
    "설치장소":null,
    "면적":null,
    "이용가능인원":null,
    "냉난방기":"N",
    "추천날씨":"폭염",
    "실내\/외":"실외",
    "Wi-Fi":null,
    "충전시설":"N",
    "공기정화기":null,
    "decimalLatitude":37.56957113,
    "decimalLongitude":126.9761402
  },
  {
    "쉼터명":"고정형 그늘막",
    "쉼터 종류":"그늘막",
    "쉼터 유형":"고정형",
    "주소":"서울특별시 종로구 사직로8길 31   (내자동)",
    "운영시간":null,
    "휴무일":null,
    "운영시작일":null,
    "운영종료일":null,
    "설치장소":null,
    "면적":null,
    "이용가능인원":null,
    "냉난방기":"N",
    "추천날씨":"폭염",
    "실내\/외":"실외",
    "Wi-Fi":null,
    "충전시설":"N",
    "공기정화기":null,
    "decimalLatitude":37.57494627,
    "decimalLongitude":126.9719797
  },
  {
    "쉼터명":"스마트형 그늘막",
    "쉼터 종류":"그늘막",
    "쉼터 유형":"스마트형",
    "주소":"서울특별시 종로구 새문안로 79   (신문로1가)",
    "운영시간":null,
    "휴무일":null,
    "운영시작일":null,
    "운영종료일":null,
    "설치장소":null,
    "면적":null,
    "이용가능인원":null,
    "냉난방기":"N",
    "추천날씨":"폭염",
    "실내\/외":"실외",
    "Wi-Fi":null,
    "충전시설":"N",
    "공기정화기":null,
    "decimalLatitude":37.57079143,
    "decimalLongitude":126.9735779
  },
  {
    "쉼터명":"고정형 그늘막",
    "쉼터 종류":"그늘막",
    "쉼터 유형":"고정형",
    "주소":"서울특별시 종로구 율곡로 33   (안국동)",
    "운영시간":null,
    "휴무일":null,
    "운영시작일":null,
    "운영종료일":null,
    "설치장소":null,
    "면적":null,
    "이용가능인원":null,
    "냉난방기":"N",
    "추천날씨":"폭염",
    "실내\/외":"실외",
    "Wi-Fi":null,
    "충전시설":"N",
    "공기정화기":null,
    "decimalLatitude":37.57590601,
    "decimalLongitude":126.9834456
  },
  {
    "쉼터명":"고정형 그늘막",
    "쉼터 종류":"그늘막",
    "쉼터 유형":"고정형",
    "주소":"서울특별시 종로구 율곡로 1   (사간동)",
    "운영시간":null,
    "휴무일":null,
    "운영시작일":null,
    "운영종료일":null,
    "설치장소":null,
    "면적":null,
    "이용가능인원":null,
    "냉난방기":"N",
    "추천날씨":"폭염",
    "실내\/외":"실외",
    "Wi-Fi":null,
    "충전시설":"N",
    "공기정화기":null,
    "decimalLatitude":37.57624423,
    "decimalLongitude":126.9798614
  },
  {
    "쉼터명":"고정형 그늘막",
    "쉼터 종류":"그늘막",
    "쉼터 유형":"고정형",
    "주소":"서울특별시 종로구 세검정로 220   (홍지동)",
    "운영시간":null,
    "휴무일":null,
    "운영시작일":null,
    "운영종료일":null,
    "설치장소":null,
    "면적":null,
    "이용가능인원":null,
    "냉난방기":"N",
    "추천날씨":"폭염",
    "실내\/외":"실외",
    "Wi-Fi":null,
    "충전시설":"N",
    "공기정화기":null,
    "decimalLatitude":null,
    "decimalLongitude":null
  },
  {
    "쉼터명":"고정형 그늘막",
    "쉼터 종류":"그늘막",
    "쉼터 유형":"고정형",
    "주소":"서울특별시 종로구 홍지문길 2   (홍지동)",
    "운영시간":null,
    "휴무일":null,
    "운영시작일":null,
    "운영종료일":null,
    "설치장소":null,
    "면적":null,
    "이용가능인원":null,
    "냉난방기":"N",
    "추천날씨":"폭염",
    "실내\/외":"실외",
    "Wi-Fi":null,
    "충전시설":"N",
    "공기정화기":null,
    "decimalLatitude":37.60002357,
    "decimalLongitude":126.9574222
  },
  {
    "쉼터명":"고정형 그늘막",
    "쉼터 종류":"그늘막",
    "쉼터 유형":"고정형",
    "주소":"서울특별시 종로구 평창11길 6   (평창동)",
    "운영시간":null,
    "휴무일":null,
    "운영시작일":null,
    "운영종료일":null,
    "설치장소":null,
    "면적":null,
    "이용가능인원":null,
    "냉난방기":"N",
    "추천날씨":"폭염",
    "실내\/외":"실외",
    "Wi-Fi":null,
    "충전시설":"N",
    "공기정화기":null,
    "decimalLatitude":37.60609624,
    "decimalLongitude":126.9669521
  },
  {
    "쉼터명":"스마트형 그늘막",
    "쉼터 종류":"그늘막",
    "쉼터 유형":"스마트형",
    "주소":"서울특별시 종로구 평창문화로 101   (평창동)",
    "운영시간":null,
    "휴무일":null,
    "운영시작일":null,
    "운영종료일":null,
    "설치장소":null,
    "면적":null,
    "이용가능인원":null,
    "냉난방기":"N",
    "추천날씨":"폭염",
    "실내\/외":"실외",
    "Wi-Fi":null,
    "충전시설":"N",
    "공기정화기":null,
    "decimalLatitude":37.60780084,
    "decimalLongitude":126.9719018
  },
  {
    "쉼터명":"고정형 그늘막",
    "쉼터 종류":"그늘막",
    "쉼터 유형":"고정형",
    "주소":"서울특별시 종로구 통일로 250   (무악동)",
    "운영시간":null,
    "휴무일":null,
    "운영시작일":null,
    "운영종료일":null,
    "설치장소":null,
    "면적":null,
    "이용가능인원":null,
    "냉난방기":"N",
    "추천날씨":"폭염",
    "실내\/외":"실외",
    "Wi-Fi":null,
    "충전시설":"N",
    "공기정화기":null,
    "decimalLatitude":37.57472947,
    "decimalLongitude":126.957955
  },
  {
    "쉼터명":"고정형 그늘막",
    "쉼터 종류":"그늘막",
    "쉼터 유형":"고정형",
    "주소":"서울특별시 종로구 통일로 220   (교북동)",
    "운영시간":null,
    "휴무일":null,
    "운영시작일":null,
    "운영종료일":null,
    "설치장소":null,
    "면적":null,
    "이용가능인원":null,
    "냉난방기":"N",
    "추천날씨":"폭염",
    "실내\/외":"실외",
    "Wi-Fi":null,
    "충전시설":"N",
    "공기정화기":null,
    "decimalLatitude":37.57274888,
    "decimalLongitude":126.9602161
  },
  {
    "쉼터명":"고정형 그늘막",
    "쉼터 종류":"그늘막",
    "쉼터 유형":"고정형",
    "주소":"서울특별시 종로구 새문안로 9   (평동)",
    "운영시간":null,
    "휴무일":null,
    "운영시작일":null,
    "운영종료일":null,
    "설치장소":null,
    "면적":null,
    "이용가능인원":null,
    "냉난방기":"N",
    "추천날씨":"폭염",
    "실내\/외":"실외",
    "Wi-Fi":null,
    "충전시설":"N",
    "공기정화기":null,
    "decimalLatitude":37.56676301,
    "decimalLongitude":126.9672025
  },
  {
    "쉼터명":"고정형 그늘막",
    "쉼터 종류":"그늘막",
    "쉼터 유형":"고정형",
    "주소":"서울특별시 종로구 송월길 99   (홍파동, 경희궁자이 2단지)",
    "운영시간":null,
    "휴무일":null,
    "운영시작일":null,
    "운영종료일":null,
    "설치장소":null,
    "면적":null,
    "이용가능인원":null,
    "냉난방기":"N",
    "추천날씨":"폭염",
    "실내\/외":"실외",
    "Wi-Fi":null,
    "충전시설":"N",
    "공기정화기":null,
    "decimalLatitude":37.5708611,
    "decimalLongitude":126.9623523
  },
  {
    "쉼터명":"고정형 그늘막",
    "쉼터 종류":"그늘막",
    "쉼터 유형":"고정형",
    "주소":"서울특별시 종로구 송월길 99   (홍파동, 경희궁자이 2단지)",
    "운영시간":null,
    "휴무일":null,
    "운영시작일":null,
    "운영종료일":null,
    "설치장소":null,
    "면적":null,
    "이용가능인원":null,
    "냉난방기":"N",
    "추천날씨":"폭염",
    "실내\/외":"실외",
    "Wi-Fi":null,
    "충전시설":"N",
    "공기정화기":null,
    "decimalLatitude":37.5708611,
    "decimalLongitude":126.9623523
  },
  {
    "쉼터명":"고정형 그늘막",
    "쉼터 종류":"그늘막",
    "쉼터 유형":"고정형",
    "주소":"서울특별시 종로구 북촌로4길 4   (재동)",
    "운영시간":null,
    "휴무일":null,
    "운영시작일":null,
    "운영종료일":null,
    "설치장소":null,
    "면적":null,
    "이용가능인원":null,
    "냉난방기":"N",
    "추천날씨":"폭염",
    "실내\/외":"실외",
    "Wi-Fi":null,
    "충전시설":"N",
    "공기정화기":null,
    "decimalLatitude":37.57904786,
    "decimalLongitude":126.985448
  },
  {
    "쉼터명":"스마트형 그늘막",
    "쉼터 종류":"그늘막",
    "쉼터 유형":"스마트형",
    "주소":"서울특별시 종로구 인사동길 62   (관훈동)",
    "운영시간":null,
    "휴무일":null,
    "운영시작일":null,
    "운영종료일":null,
    "설치장소":null,
    "면적":null,
    "이용가능인원":null,
    "냉난방기":"N",
    "추천날씨":"폭염",
    "실내\/외":"실외",
    "Wi-Fi":null,
    "충전시설":"N",
    "공기정화기":null,
    "decimalLatitude":37.57541074,
    "decimalLongitude":126.9835065
  },
  {
    "쉼터명":"고정형 그늘막",
    "쉼터 종류":"그늘막",
    "쉼터 유형":"고정형",
    "주소":"서울특별시 종로구 우정국로 69   (수송동)",
    "운영시간":null,
    "휴무일":null,
    "운영시작일":null,
    "운영종료일":null,
    "설치장소":null,
    "면적":null,
    "이용가능인원":null,
    "냉난방기":"N",
    "추천날씨":"폭염",
    "실내\/외":"실외",
    "Wi-Fi":null,
    "충전시설":"N",
    "공기정화기":null,
    "decimalLatitude":37.57519688,
    "decimalLongitude":126.9824568
  },
  {
    "쉼터명":"고정형 그늘막",
    "쉼터 종류":"그늘막",
    "쉼터 유형":"고정형",
    "주소":"서울특별시 종로구 종로 33   (청진동)",
    "운영시간":null,
    "휴무일":null,
    "운영시작일":null,
    "운영종료일":null,
    "설치장소":null,
    "면적":null,
    "이용가능인원":null,
    "냉난방기":"N",
    "추천날씨":"폭염",
    "실내\/외":"실외",
    "Wi-Fi":null,
    "충전시설":"N",
    "공기정화기":null,
    "decimalLatitude":37.57096177,
    "decimalLongitude":126.981438
  },
  {
    "쉼터명":"고정형 그늘막",
    "쉼터 종류":"그늘막",
    "쉼터 유형":"고정형",
    "주소":"서울특별시 종로구 종로 99   (종로2가)",
    "운영시간":null,
    "휴무일":null,
    "운영시작일":null,
    "운영종료일":null,
    "설치장소":null,
    "면적":null,
    "이용가능인원":null,
    "냉난방기":"N",
    "추천날씨":"폭염",
    "실내\/외":"실외",
    "Wi-Fi":null,
    "충전시설":"N",
    "공기정화기":null,
    "decimalLatitude":37.5706125,
    "decimalLongitude":126.9880587
  },
  {
    "쉼터명":"고정형 그늘막",
    "쉼터 종류":"그늘막",
    "쉼터 유형":"고정형",
    "주소":"서울특별시 종로구 종로1길 45   (세종로)",
    "운영시간":null,
    "휴무일":null,
    "운영시작일":null,
    "운영종료일":null,
    "설치장소":null,
    "면적":null,
    "이용가능인원":null,
    "냉난방기":"N",
    "추천날씨":"폭염",
    "실내\/외":"실외",
    "Wi-Fi":null,
    "충전시설":"N",
    "공기정화기":null,
    "decimalLatitude":37.57462524,
    "decimalLongitude":126.9783949
  },
  {
    "쉼터명":"고정형 그늘막",
    "쉼터 종류":"그늘막",
    "쉼터 유형":"고정형",
    "주소":"서울특별시 종로구 종로 47   (공평동)",
    "운영시간":null,
    "휴무일":null,
    "운영시작일":null,
    "운영종료일":null,
    "설치장소":null,
    "면적":null,
    "이용가능인원":null,
    "냉난방기":"N",
    "추천날씨":"폭염",
    "실내\/외":"실외",
    "Wi-Fi":null,
    "충전시설":"N",
    "공기정화기":null,
    "decimalLatitude":37.57112501,
    "decimalLongitude":126.9824389
  },
  {
    "쉼터명":"고정형 그늘막",
    "쉼터 종류":"그늘막",
    "쉼터 유형":"고정형",
    "주소":"서울특별시 종로구 종로 127-1    (종로3가)",
    "운영시간":null,
    "휴무일":null,
    "운영시작일":null,
    "운영종료일":null,
    "설치장소":null,
    "면적":null,
    "이용가능인원":null,
    "냉난방기":"N",
    "추천날씨":"폭염",
    "실내\/외":"실외",
    "Wi-Fi":null,
    "충전시설":"N",
    "공기정화기":null,
    "decimalLatitude":37.57068237,
    "decimalLongitude":126.9916762
  },
  {
    "쉼터명":"고정형 그늘막",
    "쉼터 종류":"그늘막",
    "쉼터 유형":"고정형",
    "주소":"서울특별시 종로구 종로 131   (종로3가)",
    "운영시간":null,
    "휴무일":null,
    "운영시작일":null,
    "운영종료일":null,
    "설치장소":null,
    "면적":null,
    "이용가능인원":null,
    "냉난방기":"N",
    "추천날씨":"폭염",
    "실내\/외":"실외",
    "Wi-Fi":null,
    "충전시설":"N",
    "공기정화기":null,
    "decimalLatitude":37.57073377,
    "decimalLongitude":126.9923572
  },
  {
    "쉼터명":"고정형 그늘막",
    "쉼터 종류":"그늘막",
    "쉼터 유형":"고정형",
    "주소":"서울특별시 종로구 종로 109   (종로3가)",
    "운영시간":null,
    "휴무일":null,
    "운영시작일":null,
    "운영종료일":null,
    "설치장소":null,
    "면적":null,
    "이용가능인원":null,
    "냉난방기":"N",
    "추천날씨":"폭염",
    "실내\/외":"실외",
    "Wi-Fi":null,
    "충전시설":"N",
    "공기정화기":null,
    "decimalLatitude":37.57056445,
    "decimalLongitude":126.9896638
  },
  {
    "쉼터명":"고정형 그늘막",
    "쉼터 종류":"그늘막",
    "쉼터 유형":"고정형",
    "주소":"서울특별시 종로구 종로 108   (종로3가)",
    "운영시간":null,
    "휴무일":null,
    "운영시작일":null,
    "운영종료일":null,
    "설치장소":null,
    "면적":null,
    "이용가능인원":null,
    "냉난방기":"N",
    "추천날씨":"폭염",
    "실내\/외":"실외",
    "Wi-Fi":null,
    "충전시설":"N",
    "공기정화기":null,
    "decimalLatitude":37.57003259,
    "decimalLongitude":126.9896714
  },
  {
    "쉼터명":"고정형 그늘막",
    "쉼터 종류":"그늘막",
    "쉼터 유형":"고정형",
    "주소":"서울특별시 종로구 삼일대로 469   (경운동)",
    "운영시간":null,
    "휴무일":null,
    "운영시작일":null,
    "운영종료일":null,
    "설치장소":null,
    "면적":null,
    "이용가능인원":null,
    "냉난방기":"N",
    "추천날씨":"폭염",
    "실내\/외":"실외",
    "Wi-Fi":null,
    "충전시설":"N",
    "공기정화기":null,
    "decimalLatitude":37.5763035,
    "decimalLongitude":126.9860082
  },
  {
    "쉼터명":"고정형 그늘막",
    "쉼터 종류":"그늘막",
    "쉼터 유형":"고정형",
    "주소":"서울특별시 종로구 창경궁로 124   (인의동)",
    "운영시간":null,
    "휴무일":null,
    "운영시작일":null,
    "운영종료일":null,
    "설치장소":null,
    "면적":null,
    "이용가능인원":null,
    "냉난방기":"N",
    "추천날씨":"폭염",
    "실내\/외":"실외",
    "Wi-Fi":null,
    "충전시설":"N",
    "공기정화기":null,
    "decimalLatitude":37.57352051,
    "decimalLongitude":126.9978013
  },
  {
    "쉼터명":"고정형 그늘막",
    "쉼터 종류":"그늘막",
    "쉼터 유형":"고정형",
    "주소":"서울특별시 종로구 청계천로 41   (서린동)",
    "운영시간":null,
    "휴무일":null,
    "운영시작일":null,
    "운영종료일":null,
    "설치장소":null,
    "면적":null,
    "이용가능인원":null,
    "냉난방기":"N",
    "추천날씨":"폭염",
    "실내\/외":"실외",
    "Wi-Fi":null,
    "충전시설":"N",
    "공기정화기":null,
    "decimalLatitude":37.56966797,
    "decimalLongitude":126.9821793
  },
  {
    "쉼터명":"고정형 그늘막",
    "쉼터 종류":"그늘막",
    "쉼터 유형":"고정형",
    "주소":"서울특별시 종로구 종로 51   (종로2가)",
    "운영시간":null,
    "휴무일":null,
    "운영시작일":null,
    "운영종료일":null,
    "설치장소":null,
    "면적":null,
    "이용가능인원":null,
    "냉난방기":"N",
    "추천날씨":"폭염",
    "실내\/외":"실외",
    "Wi-Fi":null,
    "충전시설":"N",
    "공기정화기":null,
    "decimalLatitude":37.57074514,
    "decimalLongitude":126.9836114
  },
  {
    "쉼터명":"스마트형 그늘막",
    "쉼터 종류":"그늘막",
    "쉼터 유형":"스마트형",
    "주소":"서울특별시 종로구 세종대로 198   (세종로)",
    "운영시간":null,
    "휴무일":null,
    "운영시작일":null,
    "운영종료일":null,
    "설치장소":null,
    "면적":null,
    "이용가능인원":null,
    "냉난방기":"N",
    "추천날씨":"폭염",
    "실내\/외":"실외",
    "Wi-Fi":null,
    "충전시설":"N",
    "공기정화기":null,
    "decimalLatitude":37.57371361,
    "decimalLongitude":126.9783394
  },
  {
    "쉼터명":"스마트형 그늘막",
    "쉼터 종류":"그늘막",
    "쉼터 유형":"스마트형",
    "주소":"서울특별시 종로구 세종대로 178   (세종로)",
    "운영시간":null,
    "휴무일":null,
    "운영시작일":null,
    "운영종료일":null,
    "설치장소":null,
    "면적":null,
    "이용가능인원":null,
    "냉난방기":"N",
    "추천날씨":"폭염",
    "실내\/외":"실외",
    "Wi-Fi":null,
    "충전시설":"N",
    "공기정화기":null,
    "decimalLatitude":37.57215064,
    "decimalLongitude":126.9777916
  },
  {
    "쉼터명":"고정형 그늘막",
    "쉼터 종류":"그늘막",
    "쉼터 유형":"고정형",
    "주소":"서울특별시 종로구 율곡로 283   (종로6가)",
    "운영시간":null,
    "휴무일":null,
    "운영시작일":null,
    "운영종료일":null,
    "설치장소":null,
    "면적":null,
    "이용가능인원":null,
    "냉난방기":"N",
    "추천날씨":"폭염",
    "실내\/외":"실외",
    "Wi-Fi":null,
    "충전시설":"N",
    "공기정화기":null,
    "decimalLatitude":37.57285718,
    "decimalLongitude":127.0085128
  },
  {
    "쉼터명":"고정형 그늘막",
    "쉼터 종류":"그늘막",
    "쉼터 유형":"고정형",
    "주소":"서울특별시 종로구 율곡로 259   (충신동)",
    "운영시간":null,
    "휴무일":null,
    "운영시작일":null,
    "운영종료일":null,
    "설치장소":null,
    "면적":null,
    "이용가능인원":null,
    "냉난방기":"N",
    "추천날씨":"폭염",
    "실내\/외":"실외",
    "Wi-Fi":null,
    "충전시설":"N",
    "공기정화기":null,
    "decimalLatitude":37.57401218,
    "decimalLongitude":127.0068347
  },
  {
    "쉼터명":"스마트형 그늘막",
    "쉼터 종류":"그늘막",
    "쉼터 유형":"스마트형",
    "주소":"서울특별시 종로구 율곡로 260   (충신동)",
    "운영시간":null,
    "휴무일":null,
    "운영시작일":null,
    "운영종료일":null,
    "설치장소":null,
    "면적":null,
    "이용가능인원":null,
    "냉난방기":"N",
    "추천날씨":"폭염",
    "실내\/외":"실외",
    "Wi-Fi":null,
    "충전시설":"N",
    "공기정화기":null,
    "decimalLatitude":37.57385634,
    "decimalLongitude":127.0062596
  },
  {
    "쉼터명":"고정형 그늘막",
    "쉼터 종류":"그늘막",
    "쉼터 유형":"고정형",
    "주소":"서울특별시 종로구 종로41길 1   (종로6가)",
    "운영시간":null,
    "휴무일":null,
    "운영시작일":null,
    "운영종료일":null,
    "설치장소":null,
    "면적":null,
    "이용가능인원":null,
    "냉난방기":"N",
    "추천날씨":"폭염",
    "실내\/외":"실외",
    "Wi-Fi":null,
    "충전시설":"N",
    "공기정화기":null,
    "decimalLatitude":37.57136499,
    "decimalLongitude":127.0065145
  },
  {
    "쉼터명":"고정형 그늘막",
    "쉼터 종류":"그늘막",
    "쉼터 유형":"고정형",
    "주소":"서울특별시 종로구 청계천로 279   (종로6가)",
    "운영시간":null,
    "휴무일":null,
    "운영시작일":null,
    "운영종료일":null,
    "설치장소":null,
    "면적":null,
    "이용가능인원":null,
    "냉난방기":"N",
    "추천날씨":"폭염",
    "실내\/외":"실외",
    "Wi-Fi":null,
    "충전시설":"N",
    "공기정화기":null,
    "decimalLatitude":37.57044853,
    "decimalLongitude":127.0087438
  },
  {
    "쉼터명":"고정형 그늘막",
    "쉼터 종류":"그늘막",
    "쉼터 유형":"고정형",
    "주소":"서울특별시 종로구 대학로 60   (연건동)",
    "운영시간":null,
    "휴무일":null,
    "운영시작일":null,
    "운영종료일":null,
    "설치장소":null,
    "면적":null,
    "이용가능인원":null,
    "냉난방기":"N",
    "추천날씨":"폭염",
    "실내\/외":"실외",
    "Wi-Fi":null,
    "충전시설":"N",
    "공기정화기":null,
    "decimalLatitude":37.57652198,
    "decimalLongitude":127.0025775
  },
  {
    "쉼터명":"고정형 그늘막",
    "쉼터 종류":"그늘막",
    "쉼터 유형":"고정형",
    "주소":"서울특별시 종로구 대학로 57   (연건동)",
    "운영시간":null,
    "휴무일":null,
    "운영시작일":null,
    "운영종료일":null,
    "설치장소":null,
    "면적":null,
    "이용가능인원":null,
    "냉난방기":"N",
    "추천날씨":"폭염",
    "실내\/외":"실외",
    "Wi-Fi":null,
    "충전시설":"N",
    "공기정화기":null,
    "decimalLatitude":37.57655858,
    "decimalLongitude":127.00145
  },
  {
    "쉼터명":"스마트형 그늘막",
    "쉼터 종류":"그늘막",
    "쉼터 유형":"스마트형",
    "주소":"서울특별시 종로구 대학로 104   (동숭동)",
    "운영시간":null,
    "휴무일":null,
    "운영시작일":null,
    "운영종료일":null,
    "설치장소":null,
    "면적":null,
    "이용가능인원":null,
    "냉난방기":"N",
    "추천날씨":"폭염",
    "실내\/외":"실외",
    "Wi-Fi":null,
    "충전시설":"N",
    "공기정화기":null,
    "decimalLatitude":37.580334,
    "decimalLongitude":127.0025153
  },
  {
    "쉼터명":"고정형 그늘막",
    "쉼터 종류":"그늘막",
    "쉼터 유형":"고정형",
    "주소":"서울특별시 종로구 율곡로19길 57   (이화동)",
    "운영시간":null,
    "휴무일":null,
    "운영시작일":null,
    "운영종료일":null,
    "설치장소":null,
    "면적":null,
    "이용가능인원":null,
    "냉난방기":"N",
    "추천날씨":"폭염",
    "실내\/외":"실외",
    "Wi-Fi":null,
    "충전시설":"N",
    "공기정화기":null,
    "decimalLatitude":37.57679,
    "decimalLongitude":127.0075263
  },
  {
    "쉼터명":"고정형 그늘막",
    "쉼터 종류":"그늘막",
    "쉼터 유형":"고정형",
    "주소":"서울특별시 종로구 창경궁로 279   (혜화동)",
    "운영시간":null,
    "휴무일":null,
    "운영시작일":null,
    "운영종료일":null,
    "설치장소":null,
    "면적":null,
    "이용가능인원":null,
    "냉난방기":"N",
    "추천날씨":"폭염",
    "실내\/외":"실외",
    "Wi-Fi":null,
    "충전시설":"N",
    "공기정화기":null,
    "decimalLatitude":37.5861084,
    "decimalLongitude":127.0014075
  },
  {
    "쉼터명":"고정형 그늘막",
    "쉼터 종류":"그늘막",
    "쉼터 유형":"고정형",
    "주소":"서울특별시 종로구 대명길 46   (명륜2가)",
    "운영시간":null,
    "휴무일":null,
    "운영시작일":null,
    "운영종료일":null,
    "설치장소":null,
    "면적":null,
    "이용가능인원":null,
    "냉난방기":"N",
    "추천날씨":"폭염",
    "실내\/외":"실외",
    "Wi-Fi":null,
    "충전시설":"N",
    "공기정화기":null,
    "decimalLatitude":37.58297114,
    "decimalLongitude":126.9990397
  },
  {
    "쉼터명":"고정형 그늘막",
    "쉼터 종류":"그늘막",
    "쉼터 유형":"고정형",
    "주소":"서울특별시 종로구 지봉로 37-1    (창신동)",
    "운영시간":null,
    "휴무일":null,
    "운영시작일":null,
    "운영종료일":null,
    "설치장소":null,
    "면적":null,
    "이용가능인원":null,
    "냉난방기":"N",
    "추천날씨":"폭염",
    "실내\/외":"실외",
    "Wi-Fi":null,
    "충전시설":"N",
    "공기정화기":null,
    "decimalLatitude":37.57325887,
    "decimalLongitude":127.0153386
  },
  {
    "쉼터명":"고정형 그늘막",
    "쉼터 종류":"그늘막",
    "쉼터 유형":"고정형",
    "주소":"서울특별시 종로구 청계천로 359   (창신동)",
    "운영시간":null,
    "휴무일":null,
    "운영시작일":null,
    "운영종료일":null,
    "설치장소":null,
    "면적":null,
    "이용가능인원":null,
    "냉난방기":"N",
    "추천날씨":"폭염",
    "실내\/외":"실외",
    "Wi-Fi":null,
    "충전시설":"N",
    "공기정화기":null,
    "decimalLatitude":37.57067641,
    "decimalLongitude":127.0175122
  },
  {
    "쉼터명":"고정형 그늘막",
    "쉼터 종류":"그늘막",
    "쉼터 유형":"고정형",
    "주소":"서울특별시 종로구 종로 285   (종로6가)",
    "운영시간":null,
    "휴무일":null,
    "운영시작일":null,
    "운영종료일":null,
    "설치장소":null,
    "면적":null,
    "이용가능인원":null,
    "냉난방기":"N",
    "추천날씨":"폭염",
    "실내\/외":"실외",
    "Wi-Fi":null,
    "충전시설":"N",
    "공기정화기":null,
    "decimalLatitude":37.57172474,
    "decimalLongitude":127.00948
  },
  {
    "쉼터명":"고정형 그늘막",
    "쉼터 종류":"그늘막",
    "쉼터 유형":"고정형",
    "주소":"서울특별시 종로구 종로 311   (창신동)",
    "운영시간":null,
    "휴무일":null,
    "운영시작일":null,
    "운영종료일":null,
    "설치장소":null,
    "면적":null,
    "이용가능인원":null,
    "냉난방기":"N",
    "추천날씨":"폭염",
    "실내\/외":"실외",
    "Wi-Fi":null,
    "충전시설":"N",
    "공기정화기":null,
    "decimalLatitude":37.57229661,
    "decimalLongitude":127.0122624
  },
  {
    "쉼터명":"스마트형 그늘막",
    "쉼터 종류":"그늘막",
    "쉼터 유형":"스마트형",
    "주소":"서울특별시 종로구 종로 347   (숭인동, 롯데캐슬 천지인)",
    "운영시간":null,
    "휴무일":null,
    "운영시작일":null,
    "운영종료일":null,
    "설치장소":null,
    "면적":null,
    "이용가능인원":null,
    "냉난방기":"N",
    "추천날씨":"폭염",
    "실내\/외":"실외",
    "Wi-Fi":null,
    "충전시설":"N",
    "공기정화기":null,
    "decimalLatitude":37.57405626,
    "decimalLongitude":127.016
  },
  {
    "쉼터명":"고정형 그늘막",
    "쉼터 종류":"그늘막",
    "쉼터 유형":"고정형",
    "주소":"서울특별시 종로구 종로 413   (숭인동)",
    "운영시간":null,
    "휴무일":null,
    "운영시작일":null,
    "운영종료일":null,
    "설치장소":null,
    "면적":null,
    "이용가능인원":null,
    "냉난방기":"N",
    "추천날씨":"폭염",
    "실내\/외":"실외",
    "Wi-Fi":null,
    "충전시설":"N",
    "공기정화기":null,
    "decimalLatitude":37.57597791,
    "decimalLongitude":127.0225356
  },
  {
    "쉼터명":"고정형 그늘막",
    "쉼터 종류":"그늘막",
    "쉼터 유형":"고정형",
    "주소":"서울특별시 종로구 종로 375   (숭인동)",
    "운영시간":null,
    "휴무일":null,
    "운영시작일":null,
    "운영종료일":null,
    "설치장소":null,
    "면적":null,
    "이용가능인원":null,
    "냉난방기":"N",
    "추천날씨":"폭염",
    "실내\/외":"실외",
    "Wi-Fi":null,
    "충전시설":"N",
    "공기정화기":null,
    "decimalLatitude":37.57432321,
    "decimalLongitude":127.0190925
  },
  {
    "쉼터명":"고정형 그늘막",
    "쉼터 종류":"그늘막",
    "쉼터 유형":"고정형",
    "주소":"서울특별시 종로구 종로 412   (숭인동)",
    "운영시간":null,
    "휴무일":null,
    "운영시작일":null,
    "운영종료일":null,
    "설치장소":null,
    "면적":null,
    "이용가능인원":null,
    "냉난방기":"N",
    "추천날씨":"폭염",
    "실내\/외":"실외",
    "Wi-Fi":null,
    "충전시설":"N",
    "공기정화기":null,
    "decimalLatitude":37.574941,
    "decimalLongitude":127.0227797
  },
  {
    "쉼터명":"고정형 그늘막",
    "쉼터 종류":"그늘막",
    "쉼터 유형":"고정형",
    "주소":"서울특별시 종로구 난계로25길 5   (숭인동, 삼일시민아파트)",
    "운영시간":null,
    "휴무일":null,
    "운영시작일":null,
    "운영종료일":null,
    "설치장소":null,
    "면적":null,
    "이용가능인원":null,
    "냉난방기":"N",
    "추천날씨":"폭염",
    "실내\/외":"실외",
    "Wi-Fi":null,
    "충전시설":"N",
    "공기정화기":null,
    "decimalLatitude":37.57234983,
    "decimalLongitude":127.022764
  },
  {
    "쉼터명":"고정형 그늘막",
    "쉼터 종류":"그늘막",
    "쉼터 유형":"고정형",
    "주소":"서울특별시 중구 세종대로 50   (남대문로4가)",
    "운영시간":null,
    "휴무일":null,
    "운영시작일":null,
    "운영종료일":null,
    "설치장소":null,
    "면적":null,
    "이용가능인원":null,
    "냉난방기":"N",
    "추천날씨":"폭염",
    "실내\/외":"실외",
    "Wi-Fi":null,
    "충전시설":"N",
    "공기정화기":null,
    "decimalLatitude":37.56092735,
    "decimalLongitude":126.9762484
  },
  {
    "쉼터명":"고정형 그늘막",
    "쉼터 종류":"그늘막",
    "쉼터 유형":"고정형",
    "주소":"서울특별시 중구 남대문로 39   (남대문로3가)",
    "운영시간":null,
    "휴무일":null,
    "운영시작일":null,
    "운영종료일":null,
    "설치장소":null,
    "면적":null,
    "이용가능인원":null,
    "냉난방기":"N",
    "추천날씨":"폭염",
    "실내\/외":"실외",
    "Wi-Fi":null,
    "충전시설":"N",
    "공기정화기":null,
    "decimalLatitude":37.5625152,
    "decimalLongitude":126.9797235
  },
  {
    "쉼터명":"고정형 그늘막",
    "쉼터 종류":"그늘막",
    "쉼터 유형":"고정형",
    "주소":"서울특별시 중구 서소문로 138   (태평로2가)",
    "운영시간":null,
    "휴무일":null,
    "운영시작일":null,
    "운영종료일":null,
    "설치장소":null,
    "면적":null,
    "이용가능인원":null,
    "냉난방기":"N",
    "추천날씨":"폭염",
    "실내\/외":"실외",
    "Wi-Fi":null,
    "충전시설":"N",
    "공기정화기":null,
    "decimalLatitude":37.56365333,
    "decimalLongitude":126.976302
  },
  {
    "쉼터명":"고정형 그늘막",
    "쉼터 종류":"그늘막",
    "쉼터 유형":"고정형",
    "주소":"서울특별시 중구 세종대로 67   (태평로2가)",
    "운영시간":null,
    "휴무일":null,
    "운영시작일":null,
    "운영종료일":null,
    "설치장소":null,
    "면적":null,
    "이용가능인원":null,
    "냉난방기":"N",
    "추천날씨":"폭염",
    "실내\/외":"실외",
    "Wi-Fi":null,
    "충전시설":"N",
    "공기정화기":null,
    "decimalLatitude":37.56230854,
    "decimalLongitude":126.975594
  },
  {
    "쉼터명":"고정형 그늘막",
    "쉼터 종류":"그늘막",
    "쉼터 유형":"고정형",
    "주소":"서울특별시 중구 세종대로9길 20   (태평로2가)",
    "운영시간":null,
    "휴무일":null,
    "운영시작일":null,
    "운영종료일":null,
    "설치장소":null,
    "면적":null,
    "이용가능인원":null,
    "냉난방기":"N",
    "추천날씨":"폭염",
    "실내\/외":"실외",
    "Wi-Fi":null,
    "충전시설":"N",
    "공기정화기":null,
    "decimalLatitude":37.56111946,
    "decimalLongitude":126.9745736
  },
  {
    "쉼터명":"고정형 그늘막",
    "쉼터 종류":"그늘막",
    "쉼터 유형":"고정형",
    "주소":"서울특별시 중구 세종대로 39   (남대문로4가)",
    "운영시간":null,
    "휴무일":null,
    "운영시작일":null,
    "운영종료일":null,
    "설치장소":null,
    "면적":null,
    "이용가능인원":null,
    "냉난방기":"N",
    "추천날씨":"폭염",
    "실내\/외":"실외",
    "Wi-Fi":null,
    "충전시설":"N",
    "공기정화기":null,
    "decimalLatitude":37.56071365,
    "decimalLongitude":126.9737753
  },
  {
    "쉼터명":"고정형 그늘막",
    "쉼터 종류":"그늘막",
    "쉼터 유형":"고정형",
    "주소":"서울특별시 중구 칠패로 27   (순화동)",
    "운영시간":null,
    "휴무일":null,
    "운영시작일":null,
    "운영종료일":null,
    "설치장소":null,
    "면적":null,
    "이용가능인원":null,
    "냉난방기":"N",
    "추천날씨":"폭염",
    "실내\/외":"실외",
    "Wi-Fi":null,
    "충전시설":"N",
    "공기정화기":null,
    "decimalLatitude":37.5602669,
    "decimalLongitude":126.9720353
  },
  {
    "쉼터명":"고정형 그늘막",
    "쉼터 종류":"그늘막",
    "쉼터 유형":"고정형",
    "주소":"서울특별시 중구 통일로 120   (충정로1가)",
    "운영시간":null,
    "휴무일":null,
    "운영시작일":null,
    "운영종료일":null,
    "설치장소":null,
    "면적":null,
    "이용가능인원":null,
    "냉난방기":"N",
    "추천날씨":"폭염",
    "실내\/외":"실외",
    "Wi-Fi":null,
    "충전시설":"N",
    "공기정화기":null,
    "decimalLatitude":37.56578544,
    "decimalLongitude":126.9675766
  },
  {
    "쉼터명":"고정형 그늘막",
    "쉼터 종류":"그늘막",
    "쉼터 유형":"고정형",
    "주소":"서울특별시 중구 세종대로 99   (정동)",
    "운영시간":null,
    "휴무일":null,
    "운영시작일":null,
    "운영종료일":null,
    "설치장소":null,
    "면적":null,
    "이용가능인원":null,
    "냉난방기":"N",
    "추천날씨":"폭염",
    "실내\/외":"실외",
    "Wi-Fi":null,
    "충전시설":"N",
    "공기정화기":null,
    "decimalLatitude":37.56608683,
    "decimalLongitude":126.9737258
  },
  {
    "쉼터명":"고정형 그늘막",
    "쉼터 종류":"그늘막",
    "쉼터 유형":"고정형",
    "주소":"서울특별시 중구 세종대로 지하101   (정동)",
    "운영시간":null,
    "휴무일":null,
    "운영시작일":null,
    "운영종료일":null,
    "설치장소":null,
    "면적":null,
    "이용가능인원":null,
    "냉난방기":"N",
    "추천날씨":"폭염",
    "실내\/외":"실외",
    "Wi-Fi":null,
    "충전시설":"N",
    "공기정화기":null,
    "decimalLatitude":37.56543852,
    "decimalLongitude":126.9769832
  },
  {
    "쉼터명":"고정형 그늘막",
    "쉼터 종류":"그늘막",
    "쉼터 유형":"고정형",
    "주소":"서울특별시 중구 서소문로 지하127   (서소문동)",
    "운영시간":null,
    "휴무일":null,
    "운영시작일":null,
    "운영종료일":null,
    "설치장소":null,
    "면적":null,
    "이용가능인원":null,
    "냉난방기":"N",
    "추천날씨":"폭염",
    "실내\/외":"실외",
    "Wi-Fi":null,
    "충전시설":"N",
    "공기정화기":null,
    "decimalLatitude":37.56357935,
    "decimalLongitude":126.9753894
  },
  {
    "쉼터명":"고정형 그늘막",
    "쉼터 종류":"그늘막",
    "쉼터 유형":"고정형",
    "주소":"서울특별시 중구 세종대로 68   (태평로2가)",
    "운영시간":null,
    "휴무일":null,
    "운영시작일":null,
    "운영종료일":null,
    "설치장소":null,
    "면적":null,
    "이용가능인원":null,
    "냉난방기":"N",
    "추천날씨":"폭염",
    "실내\/외":"실외",
    "Wi-Fi":null,
    "충전시설":"N",
    "공기정화기":null,
    "decimalLatitude":37.56226317,
    "decimalLongitude":126.9766897
  },
  {
    "쉼터명":"스마트형 그늘막",
    "쉼터 종류":"그늘막",
    "쉼터 유형":"스마트형",
    "주소":"서울특별시 중구 서소문로 138   (태평로2가)",
    "운영시간":null,
    "휴무일":null,
    "운영시작일":null,
    "운영종료일":null,
    "설치장소":null,
    "면적":null,
    "이용가능인원":null,
    "냉난방기":"N",
    "추천날씨":"폭염",
    "실내\/외":"실외",
    "Wi-Fi":null,
    "충전시설":"N",
    "공기정화기":null,
    "decimalLatitude":37.56365333,
    "decimalLongitude":126.976302
  },
  {
    "쉼터명":"고정형 그늘막",
    "쉼터 종류":"그늘막",
    "쉼터 유형":"고정형",
    "주소":"서울특별시 중구 소공로 63   (충무로1가)",
    "운영시간":null,
    "휴무일":null,
    "운영시작일":null,
    "운영종료일":null,
    "설치장소":null,
    "면적":null,
    "이용가능인원":null,
    "냉난방기":"N",
    "추천날씨":"폭염",
    "실내\/외":"실외",
    "Wi-Fi":null,
    "충전시설":"N",
    "공기정화기":null,
    "decimalLatitude":37.56091902,
    "decimalLongitude":126.980979
  },
  {
    "쉼터명":"고정형 그늘막",
    "쉼터 종류":"그늘막",
    "쉼터 유형":"고정형",
    "주소":"서울특별시 중구 소공로 51   (회현동1가)",
    "운영시간":null,
    "휴무일":null,
    "운영시작일":null,
    "운영종료일":null,
    "설치장소":null,
    "면적":null,
    "이용가능인원":null,
    "냉난방기":"N",
    "추천날씨":"폭염",
    "실내\/외":"실외",
    "Wi-Fi":null,
    "충전시설":"N",
    "공기정화기":null,
    "decimalLatitude":37.55943907,
    "decimalLongitude":126.9817507
  },
  {
    "쉼터명":"고정형 그늘막",
    "쉼터 종류":"그늘막",
    "쉼터 유형":"고정형",
    "주소":"서울특별시 중구 퇴계로 67   (회현동1가)",
    "운영시간":null,
    "휴무일":null,
    "운영시작일":null,
    "운영종료일":null,
    "설치장소":null,
    "면적":null,
    "이용가능인원":null,
    "냉난방기":"N",
    "추천날씨":"폭염",
    "실내\/외":"실외",
    "Wi-Fi":null,
    "충전시설":"N",
    "공기정화기":null,
    "decimalLatitude":37.55973234,
    "decimalLongitude":126.9795234
  },
  {
    "쉼터명":"고정형 그늘막",
    "쉼터 종류":"그늘막",
    "쉼터 유형":"고정형",
    "주소":"서울특별시 중구 퇴계로 72   (회현동1가, 리더스뷰남산)",
    "운영시간":null,
    "휴무일":null,
    "운영시작일":null,
    "운영종료일":null,
    "설치장소":null,
    "면적":null,
    "이용가능인원":null,
    "냉난방기":"N",
    "추천날씨":"폭염",
    "실내\/외":"실외",
    "Wi-Fi":null,
    "충전시설":"N",
    "공기정화기":null,
    "decimalLatitude":37.55912534,
    "decimalLongitude":126.9806038
  },
  {
    "쉼터명":"고정형 그늘막",
    "쉼터 종류":"그늘막",
    "쉼터 유형":"고정형",
    "주소":"서울특별시 중구 남대문로 2-2    (남대문로4가)",
    "운영시간":null,
    "휴무일":null,
    "운영시작일":null,
    "운영종료일":null,
    "설치장소":null,
    "면적":null,
    "이용가능인원":null,
    "냉난방기":"N",
    "추천날씨":"폭염",
    "실내\/외":"실외",
    "Wi-Fi":null,
    "충전시설":"N",
    "공기정화기":null,
    "decimalLatitude":37.56023162,
    "decimalLongitude":126.9763441
  },
  {
    "쉼터명":"고정형 그늘막",
    "쉼터 종류":"그늘막",
    "쉼터 유형":"고정형",
    "주소":"서울특별시 중구 퇴계로 24   (남대문로5가)",
    "운영시간":null,
    "휴무일":null,
    "운영시작일":null,
    "운영종료일":null,
    "설치장소":null,
    "면적":null,
    "이용가능인원":null,
    "냉난방기":"N",
    "추천날씨":"폭염",
    "실내\/외":"실외",
    "Wi-Fi":null,
    "충전시설":"N",
    "공기정화기":null,
    "decimalLatitude":37.55658764,
    "decimalLongitude":126.9759644
  },
  {
    "쉼터명":"고정형 그늘막",
    "쉼터 종류":"그늘막",
    "쉼터 유형":"고정형",
    "주소":"서울특별시 중구 세종대로 17   (남대문로5가)",
    "운영시간":null,
    "휴무일":null,
    "운영시작일":null,
    "운영종료일":null,
    "설치장소":null,
    "면적":null,
    "이용가능인원":null,
    "냉난방기":"N",
    "추천날씨":"폭염",
    "실내\/외":"실외",
    "Wi-Fi":null,
    "충전시설":"N",
    "공기정화기":null,
    "decimalLatitude":37.55862386,
    "decimalLongitude":126.9732635
  },
  {
    "쉼터명":"고정형 그늘막",
    "쉼터 종류":"그늘막",
    "쉼터 유형":"고정형",
    "주소":"서울특별시 중구 세종대로 17   (남대문로5가)",
    "운영시간":null,
    "휴무일":null,
    "운영시작일":null,
    "운영종료일":null,
    "설치장소":null,
    "면적":null,
    "이용가능인원":null,
    "냉난방기":"N",
    "추천날씨":"폭염",
    "실내\/외":"실외",
    "Wi-Fi":null,
    "충전시설":"N",
    "공기정화기":null,
    "decimalLatitude":37.55862386,
    "decimalLongitude":126.9732635
  },
  {
    "쉼터명":"고정형 그늘막",
    "쉼터 종류":"그늘막",
    "쉼터 유형":"고정형",
    "주소":"서울특별시 중구 퇴계로 97   (충무로1가)",
    "운영시간":null,
    "휴무일":null,
    "운영시작일":null,
    "운영종료일":null,
    "설치장소":null,
    "면적":null,
    "이용가능인원":null,
    "냉난방기":"N",
    "추천날씨":"폭염",
    "실내\/외":"실외",
    "Wi-Fi":null,
    "충전시설":"N",
    "공기정화기":null,
    "decimalLatitude":37.56095755,
    "decimalLongitude":126.9825456
  },
  {
    "쉼터명":"고정형 그늘막",
    "쉼터 종류":"그늘막",
    "쉼터 유형":"고정형",
    "주소":"서울특별시 중구 퇴계로 100   (회현동2가)",
    "운영시간":null,
    "휴무일":null,
    "운영시작일":null,
    "운영종료일":null,
    "설치장소":null,
    "면적":null,
    "이용가능인원":null,
    "냉난방기":"N",
    "추천날씨":"폭염",
    "실내\/외":"실외",
    "Wi-Fi":null,
    "충전시설":"N",
    "공기정화기":null,
    "decimalLatitude":37.56020699,
    "decimalLongitude":126.9829265
  },
  {
    "쉼터명":"고정형 그늘막",
    "쉼터 종류":"그늘막",
    "쉼터 유형":"고정형",
    "주소":"서울특별시 중구 퇴계로 131   (충무로2가)",
    "운영시간":null,
    "휴무일":null,
    "운영시작일":null,
    "운영종료일":null,
    "설치장소":null,
    "면적":null,
    "이용가능인원":null,
    "냉난방기":"N",
    "추천날씨":"폭염",
    "실내\/외":"실외",
    "Wi-Fi":null,
    "충전시설":"N",
    "공기정화기":null,
    "decimalLatitude":37.56128332,
    "decimalLongitude":126.9863619
  },
  {
    "쉼터명":"고정형 그늘막",
    "쉼터 종류":"그늘막",
    "쉼터 유형":"고정형",
    "주소":"서울특별시 중구 퇴계로 129   (충무로2가)",
    "운영시간":null,
    "휴무일":null,
    "운영시작일":null,
    "운영종료일":null,
    "설치장소":null,
    "면적":null,
    "이용가능인원":null,
    "냉난방기":"N",
    "추천날씨":"폭염",
    "실내\/외":"실외",
    "Wi-Fi":null,
    "충전시설":"N",
    "공기정화기":null,
    "decimalLatitude":37.56118183,
    "decimalLongitude":126.9860831
  },
  {
    "쉼터명":"고정형 그늘막",
    "쉼터 종류":"그늘막",
    "쉼터 유형":"고정형",
    "주소":"서울특별시 중구 퇴계로 107   (충무로1가)",
    "운영시간":null,
    "휴무일":null,
    "운영시작일":null,
    "운영종료일":null,
    "설치장소":null,
    "면적":null,
    "이용가능인원":null,
    "냉난방기":"N",
    "추천날씨":"폭염",
    "실내\/외":"실외",
    "Wi-Fi":null,
    "충전시설":"N",
    "공기정화기":null,
    "decimalLatitude":37.56096293,
    "decimalLongitude":126.9836243
  },
  {
    "쉼터명":"고정형 그늘막",
    "쉼터 종류":"그늘막",
    "쉼터 유형":"고정형",
    "주소":"서울특별시 중구 삼일대로 330   (저동1가)",
    "운영시간":null,
    "휴무일":null,
    "운영시작일":null,
    "운영종료일":null,
    "설치장소":null,
    "면적":null,
    "이용가능인원":null,
    "냉난방기":"N",
    "추천날씨":"폭염",
    "실내\/외":"실외",
    "Wi-Fi":null,
    "충전시설":"N",
    "공기정화기":null,
    "decimalLatitude":37.56438297,
    "decimalLongitude":126.9884331
  },
  {
    "쉼터명":"고정형 그늘막",
    "쉼터 종류":"그늘막",
    "쉼터 유형":"고정형",
    "주소":"서울특별시 중구 세종대로 141   (태평로1가)",
    "운영시간":null,
    "휴무일":null,
    "운영시작일":null,
    "운영종료일":null,
    "설치장소":null,
    "면적":null,
    "이용가능인원":null,
    "냉난방기":"N",
    "추천날씨":"폭염",
    "실내\/외":"실외",
    "Wi-Fi":null,
    "충전시설":"N",
    "공기정화기":null,
    "decimalLatitude":37.56894725,
    "decimalLongitude":126.9764297
  },
  {
    "쉼터명":"고정형 그늘막",
    "쉼터 종류":"그늘막",
    "쉼터 유형":"고정형",
    "주소":"서울특별시 중구 삼일대로 299   (충무로2가)",
    "운영시간":null,
    "휴무일":null,
    "운영시작일":null,
    "운영종료일":null,
    "설치장소":null,
    "면적":null,
    "이용가능인원":null,
    "냉난방기":"N",
    "추천날씨":"폭염",
    "실내\/외":"실외",
    "Wi-Fi":null,
    "충전시설":"N",
    "공기정화기":null,
    "decimalLatitude":37.56153204,
    "decimalLongitude":126.9884905
  },
  {
    "쉼터명":"고정형 그늘막",
    "쉼터 종류":"그늘막",
    "쉼터 유형":"고정형",
    "주소":"서울특별시 중구 세종대로 119   (태평로1가)",
    "운영시간":null,
    "휴무일":null,
    "운영시작일":null,
    "운영종료일":null,
    "설치장소":null,
    "면적":null,
    "이용가능인원":null,
    "냉난방기":"N",
    "추천날씨":"폭염",
    "실내\/외":"실외",
    "Wi-Fi":null,
    "충전시설":"N",
    "공기정화기":null,
    "decimalLatitude":37.56688375,
    "decimalLongitude":126.9767024
  },
  {
    "쉼터명":"고정형 그늘막",
    "쉼터 종류":"그늘막",
    "쉼터 유형":"고정형",
    "주소":"서울특별시 중구 삼일대로 358   (을지로2가)",
    "운영시간":null,
    "휴무일":null,
    "운영시작일":null,
    "운영종료일":null,
    "설치장소":null,
    "면적":null,
    "이용가능인원":null,
    "냉난방기":"N",
    "추천날씨":"폭염",
    "실내\/외":"실외",
    "Wi-Fi":null,
    "충전시설":"N",
    "공기정화기":null,
    "decimalLatitude":37.56648901,
    "decimalLongitude":126.9881037
  },
  {
    "쉼터명":"고정형 그늘막",
    "쉼터 종류":"그늘막",
    "쉼터 유형":"고정형",
    "주소":"서울특별시 중구 을지로 79   (을지로2가)",
    "운영시간":null,
    "휴무일":null,
    "운영시작일":null,
    "운영종료일":null,
    "설치장소":null,
    "면적":null,
    "이용가능인원":null,
    "냉난방기":"N",
    "추천날씨":"폭염",
    "실내\/외":"실외",
    "Wi-Fi":null,
    "충전시설":"N",
    "공기정화기":null,
    "decimalLatitude":37.56649353,
    "decimalLongitude":126.9865655
  },
  {
    "쉼터명":"고정형 그늘막",
    "쉼터 종류":"그늘막",
    "쉼터 유형":"고정형",
    "주소":"서울특별시 중구 을지로 79   (을지로2가)",
    "운영시간":null,
    "휴무일":null,
    "운영시작일":null,
    "운영종료일":null,
    "설치장소":null,
    "면적":null,
    "이용가능인원":null,
    "냉난방기":"N",
    "추천날씨":"폭염",
    "실내\/외":"실외",
    "Wi-Fi":null,
    "충전시설":"N",
    "공기정화기":null,
    "decimalLatitude":37.56649353,
    "decimalLongitude":126.9865655
  },
  {
    "쉼터명":"고정형 그늘막",
    "쉼터 종류":"그늘막",
    "쉼터 유형":"고정형",
    "주소":"서울특별시 중구 을지로 82   (을지로2가)",
    "운영시간":null,
    "휴무일":null,
    "운영시작일":null,
    "운영종료일":null,
    "설치장소":null,
    "면적":null,
    "이용가능인원":null,
    "냉난방기":"N",
    "추천날씨":"폭염",
    "실내\/외":"실외",
    "Wi-Fi":null,
    "충전시설":"N",
    "공기정화기":null,
    "decimalLatitude":37.56570594,
    "decimalLongitude":126.9870838
  },
  {
    "쉼터명":"고정형 그늘막",
    "쉼터 종류":"그늘막",
    "쉼터 유형":"고정형",
    "주소":"서울특별시 중구 서애로 2   (충무로5가)",
    "운영시간":null,
    "휴무일":null,
    "운영시작일":null,
    "운영종료일":null,
    "설치장소":null,
    "면적":null,
    "이용가능인원":null,
    "냉난방기":"N",
    "추천날씨":"폭염",
    "실내\/외":"실외",
    "Wi-Fi":null,
    "충전시설":"N",
    "공기정화기":null,
    "decimalLatitude":37.56187596,
    "decimalLongitude":126.9983103
  },
  {
    "쉼터명":"고정형 그늘막",
    "쉼터 종류":"그늘막",
    "쉼터 유형":"고정형",
    "주소":"서울특별시 중구 삼일대로2길 90   (주자동)",
    "운영시간":null,
    "휴무일":null,
    "운영시작일":null,
    "운영종료일":null,
    "설치장소":null,
    "면적":null,
    "이용가능인원":null,
    "냉난방기":"N",
    "추천날씨":"폭염",
    "실내\/외":"실외",
    "Wi-Fi":null,
    "충전시설":"N",
    "공기정화기":null,
    "decimalLatitude":37.56099226,
    "decimalLongitude":126.9895799
  },
  {
    "쉼터명":"고정형 그늘막",
    "쉼터 종류":"그늘막",
    "쉼터 유형":"고정형",
    "주소":"서울특별시 중구 퇴계로 190   (필동1가)",
    "운영시간":null,
    "휴무일":null,
    "운영시작일":null,
    "운영종료일":null,
    "설치장소":null,
    "면적":null,
    "이용가능인원":null,
    "냉난방기":"N",
    "추천날씨":"폭염",
    "실내\/외":"실외",
    "Wi-Fi":null,
    "충전시설":"N",
    "공기정화기":null,
    "decimalLatitude":37.56054597,
    "decimalLongitude":126.9928806
  },
  {
    "쉼터명":"고정형 그늘막",
    "쉼터 종류":"그늘막",
    "쉼터 유형":"고정형",
    "주소":"서울특별시 중구 퇴계로 196   (필동2가)",
    "운영시간":null,
    "휴무일":null,
    "운영시작일":null,
    "운영종료일":null,
    "설치장소":null,
    "면적":null,
    "이용가능인원":null,
    "냉난방기":"N",
    "추천날씨":"폭염",
    "실내\/외":"실외",
    "Wi-Fi":null,
    "충전시설":"N",
    "공기정화기":null,
    "decimalLatitude":37.56087822,
    "decimalLongitude":126.9936634
  },
  {
    "쉼터명":"고정형 그늘막",
    "쉼터 종류":"그늘막",
    "쉼터 유형":"고정형",
    "주소":"서울특별시 중구 소파로 126   (예장동)",
    "운영시간":null,
    "휴무일":null,
    "운영시작일":null,
    "운영종료일":null,
    "설치장소":null,
    "면적":null,
    "이용가능인원":null,
    "냉난방기":"N",
    "추천날씨":"폭염",
    "실내\/외":"실외",
    "Wi-Fi":null,
    "충전시설":"N",
    "공기정화기":null,
    "decimalLatitude":37.55831456,
    "decimalLongitude":126.988288
  },
  {
    "쉼터명":"고정형 그늘막",
    "쉼터 종류":"그늘막",
    "쉼터 유형":"고정형",
    "주소":"서울특별시 중구 퇴계로 179-1    (필동1가)",
    "운영시간":null,
    "휴무일":null,
    "운영시작일":null,
    "운영종료일":null,
    "설치장소":null,
    "면적":null,
    "이용가능인원":null,
    "냉난방기":"N",
    "추천날씨":"폭염",
    "실내\/외":"실외",
    "Wi-Fi":null,
    "충전시설":"N",
    "공기정화기":null,
    "decimalLatitude":37.56127725,
    "decimalLongitude":126.9918976
  },
  {
    "쉼터명":"고정형 그늘막",
    "쉼터 종류":"그늘막",
    "쉼터 유형":"고정형",
    "주소":"서울특별시 중구 동호로 250   (장충동1가)",
    "운영시간":null,
    "휴무일":null,
    "운영시작일":null,
    "운영종료일":null,
    "설치장소":null,
    "면적":null,
    "이용가능인원":null,
    "냉난방기":"N",
    "추천날씨":"폭염",
    "실내\/외":"실외",
    "Wi-Fi":null,
    "충전시설":"N",
    "공기정화기":null,
    "decimalLatitude":37.55946598,
    "decimalLongitude":127.0065069
  },
  {
    "쉼터명":"고정형 그늘막",
    "쉼터 종류":"그늘막",
    "쉼터 유형":"고정형",
    "주소":"서울특별시 중구 동호로24길 3   (장충동2가)",
    "운영시간":null,
    "휴무일":null,
    "운영시작일":null,
    "운영종료일":null,
    "설치장소":null,
    "면적":null,
    "이용가능인원":null,
    "냉난방기":"N",
    "추천날씨":"폭염",
    "실내\/외":"실외",
    "Wi-Fi":null,
    "충전시설":"N",
    "공기정화기":null,
    "decimalLatitude":37.55932018,
    "decimalLongitude":127.0051435
  },
  {
    "쉼터명":"고정형 그늘막",
    "쉼터 종류":"그늘막",
    "쉼터 유형":"고정형",
    "주소":"서울특별시 중구 동호로 234   (장충동1가)",
    "운영시간":null,
    "휴무일":null,
    "운영시작일":null,
    "운영종료일":null,
    "설치장소":null,
    "면적":null,
    "이용가능인원":null,
    "냉난방기":"N",
    "추천날씨":"폭염",
    "실내\/외":"실외",
    "Wi-Fi":null,
    "충전시설":"N",
    "공기정화기":null,
    "decimalLatitude":37.55844398,
    "decimalLongitude":127.0080686
  },
  {
    "쉼터명":"고정형 그늘막",
    "쉼터 종류":"그늘막",
    "쉼터 유형":"고정형",
    "주소":"서울특별시 중구 동호로 241   (장충동2가)",
    "운영시간":null,
    "휴무일":null,
    "운영시작일":null,
    "운영종료일":null,
    "설치장소":null,
    "면적":null,
    "이용가능인원":null,
    "냉난방기":"N",
    "추천날씨":"폭염",
    "실내\/외":"실외",
    "Wi-Fi":null,
    "충전시설":"N",
    "공기정화기":null,
    "decimalLatitude":37.55864066,
    "decimalLongitude":127.0066775
  },
  {
    "쉼터명":"고정형 그늘막",
    "쉼터 종류":"그늘막",
    "쉼터 유형":"고정형",
    "주소":"서울특별시 중구 퇴계로 272   (장충동2가)",
    "운영시간":null,
    "휴무일":null,
    "운영시작일":null,
    "운영종료일":null,
    "설치장소":null,
    "면적":null,
    "이용가능인원":null,
    "냉난방기":"N",
    "추천날씨":"폭염",
    "실내\/외":"실외",
    "Wi-Fi":null,
    "충전시설":"N",
    "공기정화기":null,
    "decimalLatitude":37.5628056,
    "decimalLongitude":127.0019524
  },
  {
    "쉼터명":"고정형 그늘막",
    "쉼터 종류":"그늘막",
    "쉼터 유형":"고정형",
    "주소":"서울특별시 중구 동호로 315   (장충동2가)",
    "운영시간":null,
    "휴무일":null,
    "운영시작일":null,
    "운영종료일":null,
    "설치장소":null,
    "면적":null,
    "이용가능인원":null,
    "냉난방기":"N",
    "추천날씨":"폭염",
    "실내\/외":"실외",
    "Wi-Fi":null,
    "충전시설":"N",
    "공기정화기":null,
    "decimalLatitude":37.5626363,
    "decimalLongitude":127.0022764
  },
  {
    "쉼터명":"고정형 그늘막",
    "쉼터 종류":"그늘막",
    "쉼터 유형":"고정형",
    "주소":"서울특별시 중구 동호로24길 21   (장충동2가)",
    "운영시간":null,
    "휴무일":null,
    "운영시작일":null,
    "운영종료일":null,
    "설치장소":null,
    "면적":null,
    "이용가능인원":null,
    "냉난방기":"N",
    "추천날씨":"폭염",
    "실내\/외":"실외",
    "Wi-Fi":null,
    "충전시설":"N",
    "공기정화기":null,
    "decimalLatitude":37.56019802,
    "decimalLongitude":127.0052381
  },
  {
    "쉼터명":"고정형 그늘막",
    "쉼터 종류":"그늘막",
    "쉼터 유형":"고정형",
    "주소":"서울특별시 중구 장충단로4길 14   (장충동1가)",
    "운영시간":null,
    "휴무일":null,
    "운영시작일":null,
    "운영종료일":null,
    "설치장소":null,
    "면적":null,
    "이용가능인원":null,
    "냉난방기":"N",
    "추천날씨":"폭염",
    "실내\/외":"실외",
    "Wi-Fi":null,
    "충전시설":"N",
    "공기정화기":null,
    "decimalLatitude":37.56119661,
    "decimalLongitude":127.0066773
  },
  {
    "쉼터명":"고정형 그늘막",
    "쉼터 종류":"그늘막",
    "쉼터 유형":"고정형",
    "주소":"서울특별시 중구 창경궁로 17   (예관동)",
    "운영시간":null,
    "휴무일":null,
    "운영시작일":null,
    "운영종료일":null,
    "설치장소":null,
    "면적":null,
    "이용가능인원":null,
    "냉난방기":"N",
    "추천날씨":"폭염",
    "실내\/외":"실외",
    "Wi-Fi":null,
    "충전시설":"N",
    "공기정화기":null,
    "decimalLatitude":37.56412015,
    "decimalLongitude":126.9980097
  },
  {
    "쉼터명":"고정형 그늘막",
    "쉼터 종류":"그늘막",
    "쉼터 유형":"고정형",
    "주소":"서울특별시 중구 창경궁로 20   (예관동)",
    "운영시간":null,
    "휴무일":null,
    "운영시작일":null,
    "운영종료일":null,
    "설치장소":null,
    "면적":null,
    "이용가능인원":null,
    "냉난방기":"N",
    "추천날씨":"폭염",
    "실내\/외":"실외",
    "Wi-Fi":null,
    "충전시설":"N",
    "공기정화기":null,
    "decimalLatitude":37.56415593,
    "decimalLongitude":126.9986625
  },
  {
    "쉼터명":"고정형 그늘막",
    "쉼터 종류":"그늘막",
    "쉼터 유형":"고정형",
    "주소":"서울특별시 중구 마른내로 95   (예관동)",
    "운영시간":null,
    "휴무일":null,
    "운영시작일":null,
    "운영종료일":null,
    "설치장소":null,
    "면적":null,
    "이용가능인원":null,
    "냉난방기":"N",
    "추천날씨":"폭염",
    "실내\/외":"실외",
    "Wi-Fi":null,
    "충전시설":"N",
    "공기정화기":null,
    "decimalLatitude":37.56451507,
    "decimalLongitude":126.9986035
  },
  {
    "쉼터명":"고정형 그늘막",
    "쉼터 종류":"그늘막",
    "쉼터 유형":"고정형",
    "주소":"서울특별시 중구 퇴계로 323   (광희동2가)",
    "운영시간":null,
    "휴무일":null,
    "운영시작일":null,
    "운영종료일":null,
    "설치장소":null,
    "면적":null,
    "이용가능인원":null,
    "냉난방기":"N",
    "추천날씨":"폭염",
    "실내\/외":"실외",
    "Wi-Fi":null,
    "충전시설":"N",
    "공기정화기":null,
    "decimalLatitude":37.56450907,
    "decimalLongitude":127.0076013
  },
  {
    "쉼터명":"고정형 그늘막",
    "쉼터 종류":"그늘막",
    "쉼터 유형":"고정형",
    "주소":"서울특별시 중구 장충단로 215   (광희동2가)",
    "운영시간":null,
    "휴무일":null,
    "운영시작일":null,
    "운영종료일":null,
    "설치장소":null,
    "면적":null,
    "이용가능인원":null,
    "냉난방기":"N",
    "추천날씨":"폭염",
    "실내\/외":"실외",
    "Wi-Fi":null,
    "충전시설":"N",
    "공기정화기":null,
    "decimalLatitude":37.56383715,
    "decimalLongitude":127.0067963
  },
  {
    "쉼터명":"고정형 그늘막",
    "쉼터 종류":"그늘막",
    "쉼터 유형":"고정형",
    "주소":"서울특별시 중구 장충단로 247   (을지로6가)",
    "운영시간":null,
    "휴무일":null,
    "운영시작일":null,
    "운영종료일":null,
    "설치장소":null,
    "면적":null,
    "이용가능인원":null,
    "냉난방기":"N",
    "추천날씨":"폭염",
    "실내\/외":"실외",
    "Wi-Fi":null,
    "충전시설":"N",
    "공기정화기":null,
    "decimalLatitude":37.56680212,
    "decimalLongitude":127.0073582
  },
  {
    "쉼터명":"고정형 그늘막",
    "쉼터 종류":"그늘막",
    "쉼터 유형":"고정형",
    "주소":"서울특별시 중구 을지로 264   (을지로6가)",
    "운영시간":null,
    "휴무일":null,
    "운영시작일":null,
    "운영종료일":null,
    "설치장소":null,
    "면적":null,
    "이용가능인원":null,
    "냉난방기":"N",
    "추천날씨":"폭염",
    "실내\/외":"실외",
    "Wi-Fi":null,
    "충전시설":"N",
    "공기정화기":null,
    "decimalLatitude":37.56576004,
    "decimalLongitude":127.0070796
  },
  {
    "쉼터명":"고정형 그늘막",
    "쉼터 종류":"그늘막",
    "쉼터 유형":"고정형",
    "주소":"서울특별시 중구 퇴계로 213   (충무로4가)",
    "운영시간":null,
    "휴무일":null,
    "운영시작일":null,
    "운영종료일":null,
    "설치장소":null,
    "면적":null,
    "이용가능인원":null,
    "냉난방기":"N",
    "추천날씨":"폭염",
    "실내\/외":"실외",
    "Wi-Fi":null,
    "충전시설":"N",
    "공기정화기":null,
    "decimalLatitude":37.56191066,
    "decimalLongitude":126.9954951
  },
  {
    "쉼터명":"고정형 그늘막",
    "쉼터 종류":"그늘막",
    "쉼터 유형":"고정형",
    "주소":"서울특별시 중구 동호로 325   (오장동)",
    "운영시간":null,
    "휴무일":null,
    "운영시작일":null,
    "운영종료일":null,
    "설치장소":null,
    "면적":null,
    "이용가능인원":null,
    "냉난방기":"N",
    "추천날씨":"폭염",
    "실내\/외":"실외",
    "Wi-Fi":null,
    "충전시설":"N",
    "공기정화기":null,
    "decimalLatitude":37.56351865,
    "decimalLongitude":127.0021615
  },
  {
    "쉼터명":"고정형 그늘막",
    "쉼터 종류":"그늘막",
    "쉼터 유형":"고정형",
    "주소":"서울특별시 중구 퇴계로 275   (오장동)",
    "운영시간":null,
    "휴무일":null,
    "운영시작일":null,
    "운영종료일":null,
    "설치장소":null,
    "면적":null,
    "이용가능인원":null,
    "냉난방기":"N",
    "추천날씨":"폭염",
    "실내\/외":"실외",
    "Wi-Fi":null,
    "충전시설":"N",
    "공기정화기":null,
    "decimalLatitude":37.56336007,
    "decimalLongitude":127.0019993
  },
  {
    "쉼터명":"고정형 그늘막",
    "쉼터 종류":"그늘막",
    "쉼터 유형":"고정형",
    "주소":"서울특별시 중구 동호로 330   (쌍림동)",
    "운영시간":null,
    "휴무일":null,
    "운영시작일":null,
    "운영종료일":null,
    "설치장소":null,
    "면적":null,
    "이용가능인원":null,
    "냉난방기":"N",
    "추천날씨":"폭염",
    "실내\/외":"실외",
    "Wi-Fi":null,
    "충전시설":"N",
    "공기정화기":null,
    "decimalLatitude":37.56397362,
    "decimalLongitude":127.0032532
  },
  {
    "쉼터명":"고정형 그늘막",
    "쉼터 종류":"그늘막",
    "쉼터 유형":"고정형",
    "주소":"서울특별시 중구 동호로 330   (쌍림동)",
    "운영시간":null,
    "휴무일":null,
    "운영시작일":null,
    "운영종료일":null,
    "설치장소":null,
    "면적":null,
    "이용가능인원":null,
    "냉난방기":"N",
    "추천날씨":"폭염",
    "실내\/외":"실외",
    "Wi-Fi":null,
    "충전시설":"N",
    "공기정화기":null,
    "decimalLatitude":37.56397362,
    "decimalLongitude":127.0032532
  },
  {
    "쉼터명":"고정형 그늘막",
    "쉼터 종류":"그늘막",
    "쉼터 유형":"고정형",
    "주소":"서울특별시 중구 퇴계로 282   (쌍림동)",
    "운영시간":null,
    "휴무일":null,
    "운영시작일":null,
    "운영종료일":null,
    "설치장소":null,
    "면적":null,
    "이용가능인원":null,
    "냉난방기":"N",
    "추천날씨":"폭염",
    "실내\/외":"실외",
    "Wi-Fi":null,
    "충전시설":"N",
    "공기정화기":null,
    "decimalLatitude":37.56307479,
    "decimalLongitude":127.0031915
  },
  {
    "쉼터명":"고정형 그늘막",
    "쉼터 종류":"그늘막",
    "쉼터 유형":"고정형",
    "주소":"서울특별시 중구 동호로 320   (쌍림동)",
    "운영시간":null,
    "휴무일":null,
    "운영시작일":null,
    "운영종료일":null,
    "설치장소":null,
    "면적":null,
    "이용가능인원":null,
    "냉난방기":"N",
    "추천날씨":"폭염",
    "실내\/외":"실외",
    "Wi-Fi":null,
    "충전시설":"N",
    "공기정화기":null,
    "decimalLatitude":37.56285721,
    "decimalLongitude":127.0029079
  },
  {
    "쉼터명":"고정형 그늘막",
    "쉼터 종류":"그늘막",
    "쉼터 유형":"고정형",
    "주소":"서울특별시 중구 동호로 336   (쌍림동)",
    "운영시간":null,
    "휴무일":null,
    "운영시작일":null,
    "운영종료일":null,
    "설치장소":null,
    "면적":null,
    "이용가능인원":null,
    "냉난방기":"N",
    "추천날씨":"폭염",
    "실내\/외":"실외",
    "Wi-Fi":null,
    "충전시설":"N",
    "공기정화기":null,
    "decimalLatitude":37.56441107,
    "decimalLongitude":127.0028748
  },
  {
    "쉼터명":"고정형 그늘막",
    "쉼터 종류":"그늘막",
    "쉼터 유형":"고정형",
    "주소":"서울특별시 중구 동호로 341   (오장동)",
    "운영시간":null,
    "휴무일":null,
    "운영시작일":null,
    "운영종료일":null,
    "설치장소":null,
    "면적":null,
    "이용가능인원":null,
    "냉난방기":"N",
    "추천날씨":"폭염",
    "실내\/외":"실외",
    "Wi-Fi":null,
    "충전시설":"N",
    "공기정화기":null,
    "decimalLatitude":37.56489456,
    "decimalLongitude":127.0021489
  },
  {
    "쉼터명":"고정형 그늘막",
    "쉼터 종류":"그늘막",
    "쉼터 유형":"고정형",
    "주소":"서울특별시 중구 퇴계로 299   (쌍림동)",
    "운영시간":null,
    "휴무일":null,
    "운영시작일":null,
    "운영종료일":null,
    "설치장소":null,
    "면적":null,
    "이용가능인원":null,
    "냉난방기":"N",
    "추천날씨":"폭염",
    "실내\/외":"실외",
    "Wi-Fi":null,
    "충전시설":"N",
    "공기정화기":null,
    "decimalLatitude":37.56413224,
    "decimalLongitude":127.0046651
  },
  {
    "쉼터명":"고정형 그늘막",
    "쉼터 종류":"그늘막",
    "쉼터 유형":"고정형",
    "주소":"서울특별시 중구 퇴계로 235   (충무로4가, 남산 센트럴 자이)",
    "운영시간":null,
    "휴무일":null,
    "운영시작일":null,
    "운영종료일":null,
    "설치장소":null,
    "면적":null,
    "이용가능인원":null,
    "냉난방기":"N",
    "추천날씨":"폭염",
    "실내\/외":"실외",
    "Wi-Fi":null,
    "충전시설":"N",
    "공기정화기":null,
    "decimalLatitude":37.5625144,
    "decimalLongitude":126.9978244
  },
  {
    "쉼터명":"고정형 그늘막",
    "쉼터 종류":"그늘막",
    "쉼터 유형":"고정형",
    "주소":"서울특별시 중구 창경궁로 2   (충무로5가)",
    "운영시간":null,
    "휴무일":null,
    "운영시작일":null,
    "운영종료일":null,
    "설치장소":null,
    "면적":null,
    "이용가능인원":null,
    "냉난방기":"N",
    "추천날씨":"폭염",
    "실내\/외":"실외",
    "Wi-Fi":null,
    "충전시설":"N",
    "공기정화기":null,
    "decimalLatitude":37.56255621,
    "decimalLongitude":126.9986898
  },
  {
    "쉼터명":"고정형 그늘막",
    "쉼터 종류":"그늘막",
    "쉼터 유형":"고정형",
    "주소":"서울특별시 중구 을지로 지하279   (을지로7가)",
    "운영시간":null,
    "휴무일":null,
    "운영시작일":null,
    "운영종료일":null,
    "설치장소":null,
    "면적":null,
    "이용가능인원":null,
    "냉난방기":"N",
    "추천날씨":"폭염",
    "실내\/외":"실외",
    "Wi-Fi":null,
    "충전시설":"N",
    "공기정화기":null,
    "decimalLatitude":37.56558952,
    "decimalLongitude":127.0091315
  },
  {
    "쉼터명":"스마트형 그늘막",
    "쉼터 종류":"그늘막",
    "쉼터 유형":"스마트형",
    "주소":"서울특별시 중구 장충단로 지하230   (광희동2가)",
    "운영시간":null,
    "휴무일":null,
    "운영시작일":null,
    "운영종료일":null,
    "설치장소":null,
    "면적":null,
    "이용가능인원":null,
    "냉난방기":"N",
    "추천날씨":"폭염",
    "실내\/외":"실외",
    "Wi-Fi":null,
    "충전시설":"N",
    "공기정화기":null,
    "decimalLatitude":37.56507877,
    "decimalLongitude":127.0075507
  },
  {
    "쉼터명":"고정형 그늘막",
    "쉼터 종류":"그늘막",
    "쉼터 유형":"고정형",
    "주소":"서울특별시 중구 충무로 56-1    (을지로3가)",
    "운영시간":null,
    "휴무일":null,
    "운영시작일":null,
    "운영종료일":null,
    "설치장소":null,
    "면적":null,
    "이용가능인원":null,
    "냉난방기":"N",
    "추천날씨":"폭염",
    "실내\/외":"실외",
    "Wi-Fi":null,
    "충전시설":"N",
    "공기정화기":null,
    "decimalLatitude":37.56618152,
    "decimalLongitude":126.9928483
  },
  {
    "쉼터명":"고정형 그늘막",
    "쉼터 종류":"그늘막",
    "쉼터 유형":"고정형",
    "주소":"서울특별시 중구 충무로 33   (초동)",
    "운영시간":null,
    "휴무일":null,
    "운영시작일":null,
    "운영종료일":null,
    "설치장소":null,
    "면적":null,
    "이용가능인원":null,
    "냉난방기":"N",
    "추천날씨":"폭염",
    "실내\/외":"실외",
    "Wi-Fi":null,
    "충전시설":"N",
    "공기정화기":null,
    "decimalLatitude":37.56412878,
    "decimalLongitude":126.9927373
  },
  {
    "쉼터명":"고정형 그늘막",
    "쉼터 종류":"그늘막",
    "쉼터 유형":"고정형",
    "주소":"서울특별시 중구 마른내로 47   (초동)",
    "운영시간":null,
    "휴무일":null,
    "운영시작일":null,
    "운영종료일":null,
    "설치장소":null,
    "면적":null,
    "이용가능인원":null,
    "냉난방기":"N",
    "추천날씨":"폭염",
    "실내\/외":"실외",
    "Wi-Fi":null,
    "충전시설":"N",
    "공기정화기":null,
    "decimalLatitude":37.56470562,
    "decimalLongitude":126.9932142
  },
  {
    "쉼터명":"고정형 그늘막",
    "쉼터 종류":"그늘막",
    "쉼터 유형":"고정형",
    "주소":"서울특별시 중구 을지로 157   (산림동)",
    "운영시간":null,
    "휴무일":null,
    "운영시작일":null,
    "운영종료일":null,
    "설치장소":null,
    "면적":null,
    "이용가능인원":null,
    "냉난방기":"N",
    "추천날씨":"폭염",
    "실내\/외":"실외",
    "Wi-Fi":null,
    "충전시설":"N",
    "공기정화기":null,
    "decimalLatitude":37.5671459,
    "decimalLongitude":126.9954512
  },
  {
    "쉼터명":"고정형 그늘막",
    "쉼터 종류":"그늘막",
    "쉼터 유형":"고정형",
    "주소":"서울특별시 중구 을지로 133   (을지로3가)",
    "운영시간":null,
    "휴무일":null,
    "운영시작일":null,
    "운영종료일":null,
    "설치장소":null,
    "면적":null,
    "이용가능인원":null,
    "냉난방기":"N",
    "추천날씨":"폭염",
    "실내\/외":"실외",
    "Wi-Fi":null,
    "충전시설":"N",
    "공기정화기":null,
    "decimalLatitude":null,
    "decimalLongitude":null
  },
  {
    "쉼터명":"고정형 그늘막",
    "쉼터 종류":"그늘막",
    "쉼터 유형":"고정형",
    "주소":"서울특별시 중구 을지로 213   (을지로5가)",
    "운영시간":null,
    "휴무일":null,
    "운영시작일":null,
    "운영종료일":null,
    "설치장소":null,
    "면적":null,
    "이용가능인원":null,
    "냉난방기":"N",
    "추천날씨":"폭염",
    "실내\/외":"실외",
    "Wi-Fi":null,
    "충전시설":"N",
    "공기정화기":null,
    "decimalLatitude":37.56710245,
    "decimalLongitude":127.0017882
  },
  {
    "쉼터명":"고정형 그늘막",
    "쉼터 종류":"그늘막",
    "쉼터 유형":"고정형",
    "주소":"서울특별시 중구 충무로 75   (입정동)",
    "운영시간":null,
    "휴무일":null,
    "운영시작일":null,
    "운영종료일":null,
    "설치장소":null,
    "면적":null,
    "이용가능인원":null,
    "냉난방기":"N",
    "추천날씨":"폭염",
    "실내\/외":"실외",
    "Wi-Fi":null,
    "충전시설":"N",
    "공기정화기":null,
    "decimalLatitude":37.56793743,
    "decimalLongitude":126.9921794
  },
  {
    "쉼터명":"고정형 그늘막",
    "쉼터 종류":"그늘막",
    "쉼터 유형":"고정형",
    "주소":"서울특별시 중구 청구로 136   (신당동)",
    "운영시간":null,
    "휴무일":null,
    "운영시작일":null,
    "운영종료일":null,
    "설치장소":null,
    "면적":null,
    "이용가능인원":null,
    "냉난방기":"N",
    "추천날씨":"폭염",
    "실내\/외":"실외",
    "Wi-Fi":null,
    "충전시설":"N",
    "공기정화기":null,
    "decimalLatitude":37.56387789,
    "decimalLongitude":127.0103573
  },
  {
    "쉼터명":"고정형 그늘막",
    "쉼터 종류":"그늘막",
    "쉼터 유형":"고정형",
    "주소":"서울특별시 중구 청구로 136   (신당동)",
    "운영시간":null,
    "휴무일":null,
    "운영시작일":null,
    "운영종료일":null,
    "설치장소":null,
    "면적":null,
    "이용가능인원":null,
    "냉난방기":"N",
    "추천날씨":"폭염",
    "실내\/외":"실외",
    "Wi-Fi":null,
    "충전시설":"N",
    "공기정화기":null,
    "decimalLatitude":37.56387789,
    "decimalLongitude":127.0103573
  },
  {
    "쉼터명":"고정형 그늘막",
    "쉼터 종류":"그늘막",
    "쉼터 유형":"고정형",
    "주소":"서울특별시 중구 청구로 134   (신당동)",
    "운영시간":null,
    "휴무일":null,
    "운영시작일":null,
    "운영종료일":null,
    "설치장소":null,
    "면적":null,
    "이용가능인원":null,
    "냉난방기":"N",
    "추천날씨":"폭염",
    "실내\/외":"실외",
    "Wi-Fi":null,
    "충전시설":"N",
    "공기정화기":null,
    "decimalLatitude":37.56366147,
    "decimalLongitude":127.0103695
  },
  {
    "쉼터명":"고정형 그늘막",
    "쉼터 종류":"그늘막",
    "쉼터 유형":"고정형",
    "주소":"서울특별시 중구 다산로 240   (신당동)",
    "운영시간":null,
    "휴무일":null,
    "운영시작일":null,
    "운영종료일":null,
    "설치장소":null,
    "면적":null,
    "이용가능인원":null,
    "냉난방기":"N",
    "추천날씨":"폭염",
    "실내\/외":"실외",
    "Wi-Fi":null,
    "충전시설":"N",
    "공기정화기":null,
    "decimalLatitude":37.5642092,
    "decimalLongitude":127.0165391
  },
  {
    "쉼터명":"고정형 그늘막",
    "쉼터 종류":"그늘막",
    "쉼터 유형":"고정형",
    "주소":"서울특별시 중구 청구로 지하77   (신당동)",
    "운영시간":null,
    "휴무일":null,
    "운영시작일":null,
    "운영종료일":null,
    "설치장소":null,
    "면적":null,
    "이용가능인원":null,
    "냉난방기":"N",
    "추천날씨":"폭염",
    "실내\/외":"실외",
    "Wi-Fi":null,
    "충전시설":"N",
    "공기정화기":null,
    "decimalLatitude":37.56029391,
    "decimalLongitude":127.013806
  },
  {
    "쉼터명":"고정형 그늘막",
    "쉼터 종류":"그늘막",
    "쉼터 유형":"고정형",
    "주소":"서울특별시 중구 다산로 221-1    (신당동)",
    "운영시간":null,
    "휴무일":null,
    "운영시작일":null,
    "운영종료일":null,
    "설치장소":null,
    "면적":null,
    "이용가능인원":null,
    "냉난방기":"N",
    "추천날씨":"폭염",
    "실내\/외":"실외",
    "Wi-Fi":null,
    "충전시설":"N",
    "공기정화기":null,
    "decimalLatitude":37.56304828,
    "decimalLongitude":127.015117
  },
  {
    "쉼터명":"고정형 그늘막",
    "쉼터 종류":"그늘막",
    "쉼터 유형":"고정형",
    "주소":"서울특별시 중구 퇴계로 349   (을지로7가)",
    "운영시간":null,
    "휴무일":null,
    "운영시작일":null,
    "운영종료일":null,
    "설치장소":null,
    "면적":null,
    "이용가능인원":null,
    "냉난방기":"N",
    "추천날씨":"폭염",
    "실내\/외":"실외",
    "Wi-Fi":null,
    "충전시설":"N",
    "공기정화기":null,
    "decimalLatitude":37.56489584,
    "decimalLongitude":127.0103374
  },
  {
    "쉼터명":"고정형 그늘막",
    "쉼터 종류":"그늘막",
    "쉼터 유형":"고정형",
    "주소":"서울특별시 중구 퇴계로 383   (신당동)",
    "운영시간":null,
    "휴무일":null,
    "운영시작일":null,
    "운영종료일":null,
    "설치장소":null,
    "면적":null,
    "이용가능인원":null,
    "냉난방기":"N",
    "추천날씨":"폭염",
    "실내\/외":"실외",
    "Wi-Fi":null,
    "충전시설":"N",
    "공기정화기":null,
    "decimalLatitude":37.56530946,
    "decimalLongitude":127.014096
  },
  {
    "쉼터명":"고정형 그늘막",
    "쉼터 종류":"그늘막",
    "쉼터 유형":"고정형",
    "주소":"서울특별시 중구 다산로 203   (신당동)",
    "운영시간":null,
    "휴무일":null,
    "운영시작일":null,
    "운영종료일":null,
    "설치장소":null,
    "면적":null,
    "이용가능인원":null,
    "냉난방기":"N",
    "추천날씨":"폭염",
    "실내\/외":"실외",
    "Wi-Fi":null,
    "충전시설":"N",
    "공기정화기":null,
    "decimalLatitude":37.561493,
    "decimalLongitude":127.0142523
  },
  {
    "쉼터명":"고정형 그늘막",
    "쉼터 종류":"그늘막",
    "쉼터 유형":"고정형",
    "주소":"서울특별시 중구 마장로 58   (흥인동)",
    "운영시간":null,
    "휴무일":null,
    "운영시작일":null,
    "운영종료일":null,
    "설치장소":null,
    "면적":null,
    "이용가능인원":null,
    "냉난방기":"N",
    "추천날씨":"폭염",
    "실내\/외":"실외",
    "Wi-Fi":null,
    "충전시설":"N",
    "공기정화기":null,
    "decimalLatitude":37.56771654,
    "decimalLongitude":127.0163481
  },
  {
    "쉼터명":"고정형 그늘막",
    "쉼터 종류":"그늘막",
    "쉼터 유형":"고정형",
    "주소":"서울특별시 중구 마장로 45   (신당동)",
    "운영시간":null,
    "휴무일":null,
    "운영시작일":null,
    "운영종료일":null,
    "설치장소":null,
    "면적":null,
    "이용가능인원":null,
    "냉난방기":"N",
    "추천날씨":"폭염",
    "실내\/외":"실외",
    "Wi-Fi":null,
    "충전시설":"N",
    "공기정화기":null,
    "decimalLatitude":37.56880383,
    "decimalLongitude":127.0137086
  },
  {
    "쉼터명":"고정형 그늘막",
    "쉼터 종류":"그늘막",
    "쉼터 유형":"고정형",
    "주소":"서울특별시 중구 다산로 269   (신당동)",
    "운영시간":null,
    "휴무일":null,
    "운영시작일":null,
    "운영종료일":null,
    "설치장소":null,
    "면적":null,
    "이용가능인원":null,
    "냉난방기":"N",
    "추천날씨":"폭염",
    "실내\/외":"실외",
    "Wi-Fi":null,
    "충전시설":"N",
    "공기정화기":null,
    "decimalLatitude":37.56729928,
    "decimalLongitude":127.0156879
  },
  {
    "쉼터명":"고정형 그늘막",
    "쉼터 종류":"그늘막",
    "쉼터 유형":"고정형",
    "주소":"서울특별시 중구 퇴계로 399   (흥인동)",
    "운영시간":null,
    "휴무일":null,
    "운영시작일":null,
    "운영종료일":null,
    "설치장소":null,
    "면적":null,
    "이용가능인원":null,
    "냉난방기":"N",
    "추천날씨":"폭염",
    "실내\/외":"실외",
    "Wi-Fi":null,
    "충전시설":"N",
    "공기정화기":null,
    "decimalLatitude":37.56553862,
    "decimalLongitude":127.0159332
  },
  {
    "쉼터명":"고정형 그늘막",
    "쉼터 종류":"그늘막",
    "쉼터 유형":"고정형",
    "주소":"서울특별시 중구 다산로 258   (흥인동)",
    "운영시간":null,
    "휴무일":null,
    "운영시작일":null,
    "운영종료일":null,
    "설치장소":null,
    "면적":null,
    "이용가능인원":null,
    "냉난방기":"N",
    "추천날씨":"폭염",
    "실내\/외":"실외",
    "Wi-Fi":null,
    "충전시설":"N",
    "공기정화기":null,
    "decimalLatitude":37.56579485,
    "decimalLongitude":127.0166238
  },
  {
    "쉼터명":"고정형 그늘막",
    "쉼터 종류":"그늘막",
    "쉼터 유형":"고정형",
    "주소":"서울특별시 중구 청계천로 334   (신당동)",
    "운영시간":null,
    "휴무일":null,
    "운영시작일":null,
    "운영종료일":null,
    "설치장소":null,
    "면적":null,
    "이용가능인원":null,
    "냉난방기":"N",
    "추천날씨":"폭염",
    "실내\/외":"실외",
    "Wi-Fi":null,
    "충전시설":"N",
    "공기정화기":null,
    "decimalLatitude":37.56946664,
    "decimalLongitude":127.0149365
  },
  {
    "쉼터명":"고정형 그늘막",
    "쉼터 종류":"그늘막",
    "쉼터 유형":"고정형",
    "주소":"서울특별시 중구 다산로 269   (신당동)",
    "운영시간":null,
    "휴무일":null,
    "운영시작일":null,
    "운영종료일":null,
    "설치장소":null,
    "면적":null,
    "이용가능인원":null,
    "냉난방기":"N",
    "추천날씨":"폭염",
    "실내\/외":"실외",
    "Wi-Fi":null,
    "충전시설":"N",
    "공기정화기":null,
    "decimalLatitude":37.56729928,
    "decimalLongitude":127.0156879
  },
  {
    "쉼터명":"고정형 그늘막",
    "쉼터 종류":"그늘막",
    "쉼터 유형":"고정형",
    "주소":"서울특별시 중구 동호로 211   (신당동)",
    "운영시간":null,
    "휴무일":null,
    "운영시작일":null,
    "운영종료일":null,
    "설치장소":null,
    "면적":null,
    "이용가능인원":null,
    "냉난방기":"N",
    "추천날씨":"폭염",
    "실내\/외":"실외",
    "Wi-Fi":null,
    "충전시설":"N",
    "공기정화기":null,
    "decimalLatitude":37.55671734,
    "decimalLongitude":127.0088242
  },
  {
    "쉼터명":"고정형 그늘막",
    "쉼터 종류":"그늘막",
    "쉼터 유형":"고정형",
    "주소":"서울특별시 중구 다산로 117   (신당동)",
    "운영시간":null,
    "휴무일":null,
    "운영시작일":null,
    "운영종료일":null,
    "설치장소":null,
    "면적":null,
    "이용가능인원":null,
    "냉난방기":"N",
    "추천날씨":"폭염",
    "실내\/외":"실외",
    "Wi-Fi":null,
    "충전시설":"N",
    "공기정화기":null,
    "decimalLatitude":37.55460538,
    "decimalLongitude":127.0102448
  },
  {
    "쉼터명":"고정형 그늘막",
    "쉼터 종류":"그늘막",
    "쉼터 유형":"고정형",
    "주소":"서울특별시 중구 동호로 192   (신당동)",
    "운영시간":null,
    "휴무일":null,
    "운영시작일":null,
    "운영종료일":null,
    "설치장소":null,
    "면적":null,
    "이용가능인원":null,
    "냉난방기":"N",
    "추천날씨":"폭염",
    "실내\/외":"실외",
    "Wi-Fi":null,
    "충전시설":"N",
    "공기정화기":null,
    "decimalLatitude":37.55536416,
    "decimalLongitude":127.01066
  },
  {
    "쉼터명":"고정형 그늘막",
    "쉼터 종류":"그늘막",
    "쉼터 유형":"고정형",
    "주소":"서울특별시 중구 다산로 141   (신당동)",
    "운영시간":null,
    "휴무일":null,
    "운영시작일":null,
    "운영종료일":null,
    "설치장소":null,
    "면적":null,
    "이용가능인원":null,
    "냉난방기":"N",
    "추천날씨":"폭염",
    "실내\/외":"실외",
    "Wi-Fi":null,
    "충전시설":"N",
    "공기정화기":null,
    "decimalLatitude":37.55646485,
    "decimalLongitude":127.0113367
  },
  {
    "쉼터명":"고정형 그늘막",
    "쉼터 종류":"그늘막",
    "쉼터 유형":"고정형",
    "주소":"서울특별시 중구 다산로 55   (신당동)",
    "운영시간":null,
    "휴무일":null,
    "운영시작일":null,
    "운영종료일":null,
    "설치장소":null,
    "면적":null,
    "이용가능인원":null,
    "냉난방기":"N",
    "추천날씨":"폭염",
    "실내\/외":"실외",
    "Wi-Fi":null,
    "충전시설":"N",
    "공기정화기":null,
    "decimalLatitude":37.54949379,
    "decimalLongitude":127.0072215
  },
  {
    "쉼터명":"고정형 그늘막",
    "쉼터 종류":"그늘막",
    "쉼터 유형":"고정형",
    "주소":"서울특별시 중구 다산로 155   (신당동)",
    "운영시간":null,
    "휴무일":null,
    "운영시작일":null,
    "운영종료일":null,
    "설치장소":null,
    "면적":null,
    "이용가능인원":null,
    "냉난방기":"N",
    "추천날씨":"폭염",
    "실내\/외":"실외",
    "Wi-Fi":null,
    "충전시설":"N",
    "공기정화기":null,
    "decimalLatitude":37.55758924,
    "decimalLongitude":127.0118886
  },
  {
    "쉼터명":"고정형 그늘막",
    "쉼터 종류":"그늘막",
    "쉼터 유형":"고정형",
    "주소":"서울특별시 중구 다산로 169   (신당동)",
    "운영시간":null,
    "휴무일":null,
    "운영시작일":null,
    "운영종료일":null,
    "설치장소":null,
    "면적":null,
    "이용가능인원":null,
    "냉난방기":"N",
    "추천날씨":"폭염",
    "실내\/외":"실외",
    "Wi-Fi":null,
    "충전시설":"N",
    "공기정화기":null,
    "decimalLatitude":37.55870712,
    "decimalLongitude":127.0126369
  },
  {
    "쉼터명":"고정형 그늘막",
    "쉼터 종류":"그늘막",
    "쉼터 유형":"고정형",
    "주소":"서울특별시 중구 다산로 117   (신당동)",
    "운영시간":null,
    "휴무일":null,
    "운영시작일":null,
    "운영종료일":null,
    "설치장소":null,
    "면적":null,
    "이용가능인원":null,
    "냉난방기":"N",
    "추천날씨":"폭염",
    "실내\/외":"실외",
    "Wi-Fi":null,
    "충전시설":"N",
    "공기정화기":null,
    "decimalLatitude":37.55460538,
    "decimalLongitude":127.0102448
  },
  {
    "쉼터명":"고정형 그늘막",
    "쉼터 종류":"그늘막",
    "쉼터 유형":"고정형",
    "주소":"서울특별시 중구 다산로 104   (신당동)",
    "운영시간":null,
    "휴무일":null,
    "운영시작일":null,
    "운영종료일":null,
    "설치장소":null,
    "면적":null,
    "이용가능인원":null,
    "냉난방기":"N",
    "추천날씨":"폭염",
    "실내\/외":"실외",
    "Wi-Fi":null,
    "충전시설":"N",
    "공기정화기":null,
    "decimalLatitude":37.55317661,
    "decimalLongitude":127.0098727
  },
  {
    "쉼터명":"고정형 그늘막",
    "쉼터 종류":"그늘막",
    "쉼터 유형":"고정형",
    "주소":"서울특별시 중구 동호로 174   (신당동)",
    "운영시간":null,
    "휴무일":null,
    "운영시작일":null,
    "운영종료일":null,
    "설치장소":null,
    "면적":null,
    "이용가능인원":null,
    "냉난방기":"N",
    "추천날씨":"폭염",
    "실내\/외":"실외",
    "Wi-Fi":null,
    "충전시설":"N",
    "공기정화기":null,
    "decimalLatitude":37.55388372,
    "decimalLongitude":127.0117341
  },
  {
    "쉼터명":"고정형 그늘막",
    "쉼터 종류":"그늘막",
    "쉼터 유형":"고정형",
    "주소":"서울특별시 중구 다산로 32   (신당동, 남산타운)",
    "운영시간":null,
    "휴무일":null,
    "운영시작일":null,
    "운영종료일":null,
    "설치장소":null,
    "면적":null,
    "이용가능인원":null,
    "냉난방기":"N",
    "추천날씨":"폭염",
    "실내\/외":"실외",
    "Wi-Fi":null,
    "충전시설":"N",
    "공기정화기":null,
    "decimalLatitude":37.54715055,
    "decimalLongitude":127.0057062
  },
  {
    "쉼터명":"고정형 그늘막",
    "쉼터 종류":"그늘막",
    "쉼터 유형":"고정형",
    "주소":"서울특별시 중구 다산로 124   (신당동)",
    "운영시간":null,
    "휴무일":null,
    "운영시작일":null,
    "운영종료일":null,
    "설치장소":null,
    "면적":null,
    "이용가능인원":null,
    "냉난방기":"N",
    "추천날씨":"폭염",
    "실내\/외":"실외",
    "Wi-Fi":null,
    "충전시설":"N",
    "공기정화기":null,
    "decimalLatitude":37.55481245,
    "decimalLongitude":127.0109963
  },
  {
    "쉼터명":"고정형 그늘막",
    "쉼터 종류":"그늘막",
    "쉼터 유형":"고정형",
    "주소":"서울특별시 중구 다산로 118   (신당동)",
    "운영시간":null,
    "휴무일":null,
    "운영시작일":null,
    "운영종료일":null,
    "설치장소":null,
    "면적":null,
    "이용가능인원":null,
    "냉난방기":"N",
    "추천날씨":"폭염",
    "실내\/외":"실외",
    "Wi-Fi":null,
    "충전시설":"N",
    "공기정화기":null,
    "decimalLatitude":37.55421503,
    "decimalLongitude":127.0106568
  },
  {
    "쉼터명":"고정형 그늘막",
    "쉼터 종류":"그늘막",
    "쉼터 유형":"고정형",
    "주소":"서울특별시 중구 동호로 171   (신당동)",
    "운영시간":null,
    "휴무일":null,
    "운영시작일":null,
    "운영종료일":null,
    "설치장소":null,
    "면적":null,
    "이용가능인원":null,
    "냉난방기":"N",
    "추천날씨":"폭염",
    "실내\/외":"실외",
    "Wi-Fi":null,
    "충전시설":"N",
    "공기정화기":null,
    "decimalLatitude":37.5534784,
    "decimalLongitude":127.0113052
  },
  {
    "쉼터명":"고정형 그늘막",
    "쉼터 종류":"그늘막",
    "쉼터 유형":"고정형",
    "주소":"서울특별시 중구 다산로 58   (신당동)",
    "운영시간":null,
    "휴무일":null,
    "운영시작일":null,
    "운영종료일":null,
    "설치장소":null,
    "면적":null,
    "이용가능인원":null,
    "냉난방기":"N",
    "추천날씨":"폭염",
    "실내\/외":"실외",
    "Wi-Fi":null,
    "충전시설":"N",
    "공기정화기":null,
    "decimalLatitude":37.54965179,
    "decimalLongitude":127.0077539
  },
  {
    "쉼터명":"고정형 그늘막",
    "쉼터 종류":"그늘막",
    "쉼터 유형":"고정형",
    "주소":"서울특별시 중구 다산로 78   (신당동)",
    "운영시간":null,
    "휴무일":null,
    "운영시작일":null,
    "운영종료일":null,
    "설치장소":null,
    "면적":null,
    "이용가능인원":null,
    "냉난방기":"N",
    "추천날씨":"폭염",
    "실내\/외":"실외",
    "Wi-Fi":null,
    "충전시설":"N",
    "공기정화기":null,
    "decimalLatitude":37.5511666,
    "decimalLongitude":127.0083817
  },
  {
    "쉼터명":"고정형 그늘막",
    "쉼터 종류":"그늘막",
    "쉼터 유형":"고정형",
    "주소":"서울특별시 중구 다산로 142   (신당동)",
    "운영시간":null,
    "휴무일":null,
    "운영시작일":null,
    "운영종료일":null,
    "설치장소":null,
    "면적":null,
    "이용가능인원":null,
    "냉난방기":"N",
    "추천날씨":"폭염",
    "실내\/외":"실외",
    "Wi-Fi":null,
    "충전시설":"N",
    "공기정화기":null,
    "decimalLatitude":37.55626866,
    "decimalLongitude":127.0117621
  },
  {
    "쉼터명":"고정형 그늘막",
    "쉼터 종류":"그늘막",
    "쉼터 유형":"고정형",
    "주소":"서울특별시 중구 청구로1길 23   (신당동, 신당동삼성아파트)",
    "운영시간":null,
    "휴무일":null,
    "운영시작일":null,
    "운영종료일":null,
    "설치장소":null,
    "면적":null,
    "이용가능인원":null,
    "냉난방기":"N",
    "추천날씨":"폭염",
    "실내\/외":"실외",
    "Wi-Fi":null,
    "충전시설":"N",
    "공기정화기":null,
    "decimalLatitude":37.55853588,
    "decimalLongitude":127.0184475
  },
  {
    "쉼터명":"고정형 그늘막",
    "쉼터 종류":"그늘막",
    "쉼터 유형":"고정형",
    "주소":"서울특별시 중구 청구로1길 23   (신당동, 신당동삼성아파트)",
    "운영시간":null,
    "휴무일":null,
    "운영시작일":null,
    "운영종료일":null,
    "설치장소":null,
    "면적":null,
    "이용가능인원":null,
    "냉난방기":"N",
    "추천날씨":"폭염",
    "실내\/외":"실외",
    "Wi-Fi":null,
    "충전시설":"N",
    "공기정화기":null,
    "decimalLatitude":37.55853588,
    "decimalLongitude":127.0184475
  },
  {
    "쉼터명":"고정형 그늘막",
    "쉼터 종류":"그늘막",
    "쉼터 유형":"고정형",
    "주소":"서울특별시 중구 다산로 168   (신당동)",
    "운영시간":null,
    "휴무일":null,
    "운영시작일":null,
    "운영종료일":null,
    "설치장소":null,
    "면적":null,
    "이용가능인원":null,
    "냉난방기":"N",
    "추천날씨":"폭염",
    "실내\/외":"실외",
    "Wi-Fi":null,
    "충전시설":"N",
    "공기정화기":null,
    "decimalLatitude":37.55844227,
    "decimalLongitude":127.0130234
  },
  {
    "쉼터명":"고정형 그늘막",
    "쉼터 종류":"그늘막",
    "쉼터 유형":"고정형",
    "주소":"서울특별시 중구 동호로10길 27   (신당동)",
    "운영시간":null,
    "휴무일":null,
    "운영시작일":null,
    "운영종료일":null,
    "설치장소":null,
    "면적":null,
    "이용가능인원":null,
    "냉난방기":"N",
    "추천날씨":"폭염",
    "실내\/외":"실외",
    "Wi-Fi":null,
    "충전시설":"N",
    "공기정화기":null,
    "decimalLatitude":37.55539072,
    "decimalLongitude":127.011863
  },
  {
    "쉼터명":"고정형 그늘막",
    "쉼터 종류":"그늘막",
    "쉼터 유형":"고정형",
    "주소":"서울특별시 중구 다산로 154   (신당동)",
    "운영시간":null,
    "휴무일":null,
    "운영시작일":null,
    "운영종료일":null,
    "설치장소":null,
    "면적":null,
    "이용가능인원":null,
    "냉난방기":"N",
    "추천날씨":"폭염",
    "실내\/외":"실외",
    "Wi-Fi":null,
    "충전시설":"N",
    "공기정화기":null,
    "decimalLatitude":37.55730421,
    "decimalLongitude":127.0123398
  },
  {
    "쉼터명":"고정형 그늘막",
    "쉼터 종류":"그늘막",
    "쉼터 유형":"고정형",
    "주소":"서울특별시 중구 청구로 9   (신당동)",
    "운영시간":null,
    "휴무일":null,
    "운영시작일":null,
    "운영종료일":null,
    "설치장소":null,
    "면적":null,
    "이용가능인원":null,
    "냉난방기":"N",
    "추천날씨":"폭염",
    "실내\/외":"실외",
    "Wi-Fi":null,
    "충전시설":"N",
    "공기정화기":null,
    "decimalLatitude":37.55785926,
    "decimalLongitude":127.0188462
  },
  {
    "쉼터명":"고정형 그늘막",
    "쉼터 종류":"그늘막",
    "쉼터 유형":"고정형",
    "주소":"서울특별시 중구 왕십리로 415   (신당동)",
    "운영시간":null,
    "휴무일":null,
    "운영시작일":null,
    "운영종료일":null,
    "설치장소":null,
    "면적":null,
    "이용가능인원":null,
    "냉난방기":"N",
    "추천날씨":"폭염",
    "실내\/외":"실외",
    "Wi-Fi":null,
    "충전시설":"N",
    "공기정화기":null,
    "decimalLatitude":37.56496042,
    "decimalLongitude":127.024047
  },
  {
    "쉼터명":"고정형 그늘막",
    "쉼터 종류":"그늘막",
    "쉼터 유형":"고정형",
    "주소":"서울특별시 중구 퇴계로90길 74   (신당동, 래미안신당하이베르아파트)",
    "운영시간":null,
    "휴무일":null,
    "운영시작일":null,
    "운영종료일":null,
    "설치장소":null,
    "면적":null,
    "이용가능인원":null,
    "냉난방기":"N",
    "추천날씨":"폭염",
    "실내\/외":"실외",
    "Wi-Fi":null,
    "충전시설":"N",
    "공기정화기":null,
    "decimalLatitude":37.56103798,
    "decimalLongitude":127.0209858
  },
  {
    "쉼터명":"고정형 그늘막",
    "쉼터 종류":"그늘막",
    "쉼터 유형":"고정형",
    "주소":"서울특별시 중구 퇴계로 434   (신당동)",
    "운영시간":null,
    "휴무일":null,
    "운영시작일":null,
    "운영종료일":null,
    "설치장소":null,
    "면적":null,
    "이용가능인원":null,
    "냉난방기":"N",
    "추천날씨":"폭염",
    "실내\/외":"실외",
    "Wi-Fi":null,
    "충전시설":"N",
    "공기정화기":null,
    "decimalLatitude":37.56550839,
    "decimalLongitude":127.0197729
  },
  {
    "쉼터명":"고정형 그늘막",
    "쉼터 종류":"그늘막",
    "쉼터 유형":"고정형",
    "주소":"서울특별시 중구 퇴계로 420   (신당동)",
    "운영시간":null,
    "휴무일":null,
    "운영시작일":null,
    "운영종료일":null,
    "설치장소":null,
    "면적":null,
    "이용가능인원":null,
    "냉난방기":"N",
    "추천날씨":"폭염",
    "실내\/외":"실외",
    "Wi-Fi":null,
    "충전시설":"N",
    "공기정화기":null,
    "decimalLatitude":37.56539781,
    "decimalLongitude":127.0182949
  },
  {
    "쉼터명":"고정형 그늘막",
    "쉼터 종류":"그늘막",
    "쉼터 유형":"고정형",
    "주소":"서울특별시 중구 퇴계로 404   (신당동)",
    "운영시간":null,
    "휴무일":null,
    "운영시작일":null,
    "운영종료일":null,
    "설치장소":null,
    "면적":null,
    "이용가능인원":null,
    "냉난방기":"N",
    "추천날씨":"폭염",
    "실내\/외":"실외",
    "Wi-Fi":null,
    "충전시설":"N",
    "공기정화기":null,
    "decimalLatitude":37.56519355,
    "decimalLongitude":127.016501
  },
  {
    "쉼터명":"고정형 그늘막",
    "쉼터 종류":"그늘막",
    "쉼터 유형":"고정형",
    "주소":"서울특별시 중구 난계로 130   (신당동, 신당KCC스위첸)",
    "운영시간":null,
    "휴무일":null,
    "운영시작일":null,
    "운영종료일":null,
    "설치장소":null,
    "면적":null,
    "이용가능인원":null,
    "냉난방기":"N",
    "추천날씨":"폭염",
    "실내\/외":"실외",
    "Wi-Fi":null,
    "충전시설":"N",
    "공기정화기":null,
    "decimalLatitude":37.56334224,
    "decimalLongitude":127.0244518
  },
  {
    "쉼터명":"고정형 그늘막",
    "쉼터 종류":"그늘막",
    "쉼터 유형":"고정형",
    "주소":"서울특별시 중구 난계로 129   (신당동)",
    "운영시간":null,
    "휴무일":null,
    "운영시작일":null,
    "운영종료일":null,
    "설치장소":null,
    "면적":null,
    "이용가능인원":null,
    "냉난방기":"N",
    "추천날씨":"폭염",
    "실내\/외":"실외",
    "Wi-Fi":null,
    "충전시설":"N",
    "공기정화기":null,
    "decimalLatitude":37.56344543,
    "decimalLongitude":127.0239112
  },
  {
    "쉼터명":"고정형 그늘막",
    "쉼터 종류":"그늘막",
    "쉼터 유형":"고정형",
    "주소":"서울특별시 중구 청구로6길 11   (신당동)",
    "운영시간":null,
    "휴무일":null,
    "운영시작일":null,
    "운영종료일":null,
    "설치장소":null,
    "면적":null,
    "이용가능인원":null,
    "냉난방기":"N",
    "추천날씨":"폭염",
    "실내\/외":"실외",
    "Wi-Fi":null,
    "충전시설":"N",
    "공기정화기":null,
    "decimalLatitude":37.56093749,
    "decimalLongitude":127.0146162
  },
  {
    "쉼터명":"고정형 그늘막",
    "쉼터 종류":"그늘막",
    "쉼터 유형":"고정형",
    "주소":"서울특별시 중구 다산로36길 110   (신당동, 신당푸르지오)",
    "운영시간":null,
    "휴무일":null,
    "운영시작일":null,
    "운영종료일":null,
    "설치장소":null,
    "면적":null,
    "이용가능인원":null,
    "냉난방기":"N",
    "추천날씨":"폭염",
    "실내\/외":"실외",
    "Wi-Fi":null,
    "충전시설":"N",
    "공기정화기":null,
    "decimalLatitude":37.55986467,
    "decimalLongitude":127.0190343
  },
  {
    "쉼터명":"고정형 그늘막",
    "쉼터 종류":"그늘막",
    "쉼터 유형":"고정형",
    "주소":"서울특별시 중구 청구로 32   (신당동)",
    "운영시간":null,
    "휴무일":null,
    "운영시작일":null,
    "운영종료일":null,
    "설치장소":null,
    "면적":null,
    "이용가능인원":null,
    "냉난방기":"N",
    "추천날씨":"폭염",
    "실내\/외":"실외",
    "Wi-Fi":null,
    "충전시설":"N",
    "공기정화기":null,
    "decimalLatitude":37.56007108,
    "decimalLongitude":127.0185132
  },
  {
    "쉼터명":"고정형 그늘막",
    "쉼터 종류":"그늘막",
    "쉼터 유형":"고정형",
    "주소":"서울특별시 중구 다산로 236   (신당동)",
    "운영시간":null,
    "휴무일":null,
    "운영시작일":null,
    "운영종료일":null,
    "설치장소":null,
    "면적":null,
    "이용가능인원":null,
    "냉난방기":"N",
    "추천날씨":"폭염",
    "실내\/외":"실외",
    "Wi-Fi":null,
    "충전시설":"N",
    "공기정화기":null,
    "decimalLatitude":37.5639567,
    "decimalLongitude":127.0162239
  },
  {
    "쉼터명":"고정형 그늘막",
    "쉼터 종류":"그늘막",
    "쉼터 유형":"고정형",
    "주소":"서울특별시 중구 청계천로 400   (황학동, 롯데캐슬베네치아)",
    "운영시간":null,
    "휴무일":null,
    "운영시작일":null,
    "운영종료일":null,
    "설치장소":null,
    "면적":null,
    "이용가능인원":null,
    "냉난방기":"N",
    "추천날씨":"폭염",
    "실내\/외":"실외",
    "Wi-Fi":null,
    "충전시설":"N",
    "공기정화기":null,
    "decimalLatitude":37.57081055,
    "decimalLongitude":127.0214639
  },
  {
    "쉼터명":"고정형 그늘막",
    "쉼터 종류":"그늘막",
    "쉼터 유형":"고정형",
    "주소":"서울특별시 중구 청계천로 370   (황학동)",
    "운영시간":null,
    "휴무일":null,
    "운영시작일":null,
    "운영종료일":null,
    "설치장소":null,
    "면적":null,
    "이용가능인원":null,
    "냉난방기":"N",
    "추천날씨":"폭염",
    "실내\/외":"실외",
    "Wi-Fi":null,
    "충전시설":"N",
    "공기정화기":null,
    "decimalLatitude":37.57052441,
    "decimalLongitude":127.0186906
  },
  {
    "쉼터명":"고정형 그늘막",
    "쉼터 종류":"그늘막",
    "쉼터 유형":"고정형",
    "주소":"서울특별시 중구 청계천로 400   (황학동, 롯데캐슬베네치아)",
    "운영시간":null,
    "휴무일":null,
    "운영시작일":null,
    "운영종료일":null,
    "설치장소":null,
    "면적":null,
    "이용가능인원":null,
    "냉난방기":"N",
    "추천날씨":"폭염",
    "실내\/외":"실외",
    "Wi-Fi":null,
    "충전시설":"N",
    "공기정화기":null,
    "decimalLatitude":37.57081055,
    "decimalLongitude":127.0214639
  },
  {
    "쉼터명":"고정형 그늘막",
    "쉼터 종류":"그늘막",
    "쉼터 유형":"고정형",
    "주소":"서울특별시 중구 청계천로 370   (황학동)",
    "운영시간":null,
    "휴무일":null,
    "운영시작일":null,
    "운영종료일":null,
    "설치장소":null,
    "면적":null,
    "이용가능인원":null,
    "냉난방기":"N",
    "추천날씨":"폭염",
    "실내\/외":"실외",
    "Wi-Fi":null,
    "충전시설":"N",
    "공기정화기":null,
    "decimalLatitude":37.57052441,
    "decimalLongitude":127.0186906
  },
  {
    "쉼터명":"고정형 그늘막",
    "쉼터 종류":"그늘막",
    "쉼터 유형":"고정형",
    "주소":"서울특별시 중구 마장로 119   (황학동)",
    "운영시간":null,
    "휴무일":null,
    "운영시작일":null,
    "운영종료일":null,
    "설치장소":null,
    "면적":null,
    "이용가능인원":null,
    "냉난방기":"N",
    "추천날씨":"폭염",
    "실내\/외":"실외",
    "Wi-Fi":null,
    "충전시설":"N",
    "공기정화기":null,
    "decimalLatitude":37.56809615,
    "decimalLongitude":127.023197
  },
  {
    "쉼터명":"고정형 그늘막",
    "쉼터 종류":"그늘막",
    "쉼터 유형":"고정형",
    "주소":"서울특별시 중구 난계로 179   (황학동)",
    "운영시간":null,
    "휴무일":null,
    "운영시작일":null,
    "운영종료일":null,
    "설치장소":null,
    "면적":null,
    "이용가능인원":null,
    "냉난방기":"N",
    "추천날씨":"폭염",
    "실내\/외":"실외",
    "Wi-Fi":null,
    "충전시설":"N",
    "공기정화기":null,
    "decimalLatitude":37.56757905,
    "decimalLongitude":127.0233159
  },
  {
    "쉼터명":"고정형 그늘막",
    "쉼터 종류":"그늘막",
    "쉼터 유형":"고정형",
    "주소":"서울특별시 중구 퇴계로 453   (황학동)",
    "운영시간":null,
    "휴무일":null,
    "운영시작일":null,
    "운영종료일":null,
    "설치장소":null,
    "면적":null,
    "이용가능인원":null,
    "냉난방기":"N",
    "추천날씨":"폭염",
    "실내\/외":"실외",
    "Wi-Fi":null,
    "충전시설":"N",
    "공기정화기":null,
    "decimalLatitude":37.56561564,
    "decimalLongitude":127.022148
  },
  {
    "쉼터명":"고정형 그늘막",
    "쉼터 종류":"그늘막",
    "쉼터 유형":"고정형",
    "주소":"서울특별시 중구 퇴계로 433   (황학동)",
    "운영시간":null,
    "휴무일":null,
    "운영시작일":null,
    "운영종료일":null,
    "설치장소":null,
    "면적":null,
    "이용가능인원":null,
    "냉난방기":"N",
    "추천날씨":"폭염",
    "실내\/외":"실외",
    "Wi-Fi":null,
    "충전시설":"N",
    "공기정화기":null,
    "decimalLatitude":37.56583292,
    "decimalLongitude":127.0198193
  },
  {
    "쉼터명":"고정형 그늘막",
    "쉼터 종류":"그늘막",
    "쉼터 유형":"고정형",
    "주소":"서울특별시 중구 난계로 167   (황학동)",
    "운영시간":null,
    "휴무일":null,
    "운영시작일":null,
    "운영종료일":null,
    "설치장소":null,
    "면적":null,
    "이용가능인원":null,
    "냉난방기":"N",
    "추천날씨":"폭염",
    "실내\/외":"실외",
    "Wi-Fi":null,
    "충전시설":"N",
    "공기정화기":null,
    "decimalLatitude":37.56641207,
    "decimalLongitude":127.0233361
  },
  {
    "쉼터명":"고정형 그늘막",
    "쉼터 종류":"그늘막",
    "쉼터 유형":"고정형",
    "주소":"서울특별시 중구 퇴계로 463   (황학동)",
    "운영시간":null,
    "휴무일":null,
    "운영시작일":null,
    "운영종료일":null,
    "설치장소":null,
    "면적":null,
    "이용가능인원":null,
    "냉난방기":"N",
    "추천날씨":"폭염",
    "실내\/외":"실외",
    "Wi-Fi":null,
    "충전시설":"N",
    "공기정화기":null,
    "decimalLatitude":37.56546902,
    "decimalLongitude":127.0232429
  },
  {
    "쉼터명":"고정형 그늘막",
    "쉼터 종류":"그늘막",
    "쉼터 유형":"고정형",
    "주소":"서울특별시 중구 퇴계로 419   (황학동)",
    "운영시간":null,
    "휴무일":null,
    "운영시작일":null,
    "운영종료일":null,
    "설치장소":null,
    "면적":null,
    "이용가능인원":null,
    "냉난방기":"N",
    "추천날씨":"폭염",
    "실내\/외":"실외",
    "Wi-Fi":null,
    "충전시설":"N",
    "공기정화기":null,
    "decimalLatitude":37.56574507,
    "decimalLongitude":127.0182007
  },
  {
    "쉼터명":"고정형 그늘막",
    "쉼터 종류":"그늘막",
    "쉼터 유형":"고정형",
    "주소":"서울특별시 중구 퇴계로 33   (남대문로5가)",
    "운영시간":null,
    "휴무일":null,
    "운영시작일":null,
    "운영종료일":null,
    "설치장소":null,
    "면적":null,
    "이용가능인원":null,
    "냉난방기":"N",
    "추천날씨":"폭염",
    "실내\/외":"실외",
    "Wi-Fi":null,
    "충전시설":"N",
    "공기정화기":null,
    "decimalLatitude":37.55754634,
    "decimalLongitude":126.9766079
  },
  {
    "쉼터명":"고정형 그늘막",
    "쉼터 종류":"그늘막",
    "쉼터 유형":"고정형",
    "주소":"서울특별시 중구 서소문로 50   (중림동)",
    "운영시간":null,
    "휴무일":null,
    "운영시작일":null,
    "운영종료일":null,
    "설치장소":null,
    "면적":null,
    "이용가능인원":null,
    "냉난방기":"N",
    "추천날씨":"폭염",
    "실내\/외":"실외",
    "Wi-Fi":null,
    "충전시설":"N",
    "공기정화기":null,
    "decimalLatitude":37.56091694,
    "decimalLongitude":126.9670292
  },
  {
    "쉼터명":"고정형 그늘막",
    "쉼터 종류":"그늘막",
    "쉼터 유형":"고정형",
    "주소":"서울특별시 중구 중림로 10   (중림동, 중림동 삼성 사이버 빌리지)",
    "운영시간":null,
    "휴무일":null,
    "운영시작일":null,
    "운영종료일":null,
    "설치장소":null,
    "면적":null,
    "이용가능인원":null,
    "냉난방기":"N",
    "추천날씨":"폭염",
    "실내\/외":"실외",
    "Wi-Fi":null,
    "충전시설":"N",
    "공기정화기":null,
    "decimalLatitude":37.55892666,
    "decimalLongitude":126.9643209
  },
  {
    "쉼터명":"고정형 그늘막",
    "쉼터 종류":"그늘막",
    "쉼터 유형":"고정형",
    "주소":"서울특별시 중구 만리재로 183   (만리동2가)",
    "운영시간":null,
    "휴무일":null,
    "운영시작일":null,
    "운영종료일":null,
    "설치장소":null,
    "면적":null,
    "이용가능인원":null,
    "냉난방기":"N",
    "추천날씨":"폭염",
    "실내\/외":"실외",
    "Wi-Fi":null,
    "충전시설":"N",
    "공기정화기":null,
    "decimalLatitude":37.55458427,
    "decimalLongitude":126.9663533
  },
  {
    "쉼터명":"고정형 그늘막",
    "쉼터 종류":"그늘막",
    "쉼터 유형":"고정형",
    "주소":"서울특별시 중구 퇴계로 33   (남대문로5가)",
    "운영시간":null,
    "휴무일":null,
    "운영시작일":null,
    "운영종료일":null,
    "설치장소":null,
    "면적":null,
    "이용가능인원":null,
    "냉난방기":"N",
    "추천날씨":"폭염",
    "실내\/외":"실외",
    "Wi-Fi":null,
    "충전시설":"N",
    "공기정화기":null,
    "decimalLatitude":37.55754634,
    "decimalLongitude":126.9766079
  },
  {
    "쉼터명":"고정형 그늘막",
    "쉼터 종류":"그늘막",
    "쉼터 유형":"고정형",
    "주소":"서울특별시 중구 청파로 450   (중림동)",
    "운영시간":null,
    "휴무일":null,
    "운영시작일":null,
    "운영종료일":null,
    "설치장소":null,
    "면적":null,
    "이용가능인원":null,
    "냉난방기":"N",
    "추천날씨":"폭염",
    "실내\/외":"실외",
    "Wi-Fi":null,
    "충전시설":"N",
    "공기정화기":null,
    "decimalLatitude":37.559689,
    "decimalLongitude":126.9688112
  },
  {
    "쉼터명":"고정형 그늘막",
    "쉼터 종류":"그늘막",
    "쉼터 유형":"고정형",
    "주소":"서울특별시 중구 한강대로 405   (봉래동2가)",
    "운영시간":null,
    "휴무일":null,
    "운영시작일":null,
    "운영종료일":null,
    "설치장소":null,
    "면적":null,
    "이용가능인원":null,
    "냉난방기":"N",
    "추천날씨":"폭염",
    "실내\/외":"실외",
    "Wi-Fi":null,
    "충전시설":"N",
    "공기정화기":null,
    "decimalLatitude":37.55472785,
    "decimalLongitude":126.9695263
  },
  {
    "쉼터명":"고정형 그늘막",
    "쉼터 종류":"그늘막",
    "쉼터 유형":"고정형",
    "주소":"서울특별시 중구 만리재로 193   (만리동1가)",
    "운영시간":null,
    "휴무일":null,
    "운영시작일":null,
    "운영종료일":null,
    "설치장소":null,
    "면적":null,
    "이용가능인원":null,
    "냉난방기":"N",
    "추천날씨":"폭염",
    "실내\/외":"실외",
    "Wi-Fi":null,
    "충전시설":"N",
    "공기정화기":null,
    "decimalLatitude":37.55501987,
    "decimalLongitude":126.967199
  },
  {
    "쉼터명":"스마트형 그늘막",
    "쉼터 종류":"그늘막",
    "쉼터 유형":"스마트형",
    "주소":"서울특별시 용산구 후암로 47   (후암동)",
    "운영시간":null,
    "휴무일":null,
    "운영시작일":null,
    "운영종료일":null,
    "설치장소":null,
    "면적":null,
    "이용가능인원":null,
    "냉난방기":"N",
    "추천날씨":"폭염",
    "실내\/외":"실외",
    "Wi-Fi":null,
    "충전시설":"N",
    "공기정화기":null,
    "decimalLatitude":37.55005357,
    "decimalLongitude":126.9771359
  },
  {
    "쉼터명":"스마트형 그늘막",
    "쉼터 종류":"그늘막",
    "쉼터 유형":"스마트형",
    "주소":"서울특별시 용산구 후암로 51   (후암동)",
    "운영시간":null,
    "휴무일":null,
    "운영시작일":null,
    "운영종료일":null,
    "설치장소":null,
    "면적":null,
    "이용가능인원":null,
    "냉난방기":"N",
    "추천날씨":"폭염",
    "실내\/외":"실외",
    "Wi-Fi":null,
    "충전시설":"N",
    "공기정화기":null,
    "decimalLatitude":37.55043611,
    "decimalLongitude":126.9769997
  },
  {
    "쉼터명":"고정형 그늘막",
    "쉼터 종류":"그늘막",
    "쉼터 유형":"고정형",
    "주소":"서울특별시 용산구 소월로 109   (후암동)",
    "운영시간":null,
    "휴무일":null,
    "운영시작일":null,
    "운영종료일":null,
    "설치장소":null,
    "면적":null,
    "이용가능인원":null,
    "냉난방기":"N",
    "추천날씨":"폭염",
    "실내\/외":"실외",
    "Wi-Fi":null,
    "충전시설":"N",
    "공기정화기":null,
    "decimalLatitude":37.55255642,
    "decimalLongitude":126.9821581
  },
  {
    "쉼터명":"고정형 그늘막",
    "쉼터 종류":"그늘막",
    "쉼터 유형":"고정형",
    "주소":"서울특별시 용산구 신흥로 152   (후암동)",
    "운영시간":null,
    "휴무일":null,
    "운영시작일":null,
    "운영종료일":null,
    "설치장소":null,
    "면적":null,
    "이용가능인원":null,
    "냉난방기":"N",
    "추천날씨":"폭염",
    "실내\/외":"실외",
    "Wi-Fi":null,
    "충전시설":"N",
    "공기정화기":null,
    "decimalLatitude":37.5468437,
    "decimalLongitude":126.9813929
  },
  {
    "쉼터명":"스마트형 그늘막",
    "쉼터 종류":"그늘막",
    "쉼터 유형":"스마트형",
    "주소":"서울특별시 용산구 신흥로 152   (후암동)",
    "운영시간":null,
    "휴무일":null,
    "운영시작일":null,
    "운영종료일":null,
    "설치장소":null,
    "면적":null,
    "이용가능인원":null,
    "냉난방기":"N",
    "추천날씨":"폭염",
    "실내\/외":"실외",
    "Wi-Fi":null,
    "충전시설":"N",
    "공기정화기":null,
    "decimalLatitude":37.5468437,
    "decimalLongitude":126.9813929
  },
  {
    "쉼터명":"스마트형 그늘막",
    "쉼터 종류":"그늘막",
    "쉼터 유형":"스마트형",
    "주소":"서울특별시 용산구 한강대로77길 4-1    (갈월동)",
    "운영시간":null,
    "휴무일":null,
    "운영시작일":null,
    "운영종료일":null,
    "설치장소":null,
    "면적":null,
    "이용가능인원":null,
    "냉난방기":"N",
    "추천날씨":"폭염",
    "실내\/외":"실외",
    "Wi-Fi":null,
    "충전시설":"N",
    "공기정화기":null,
    "decimalLatitude":37.54224754,
    "decimalLongitude":126.9722916
  },
  {
    "쉼터명":"스마트형 그늘막",
    "쉼터 종류":"그늘막",
    "쉼터 유형":"스마트형",
    "주소":"서울특별시 용산구 한강대로 259   (갈월동)",
    "운영시간":null,
    "휴무일":null,
    "운영시작일":null,
    "운영종료일":null,
    "설치장소":null,
    "면적":null,
    "이용가능인원":null,
    "냉난방기":"N",
    "추천날씨":"폭염",
    "실내\/외":"실외",
    "Wi-Fi":null,
    "충전시설":"N",
    "공기정화기":null,
    "decimalLatitude":37.54158425,
    "decimalLongitude":126.9724128
  },
  {
    "쉼터명":"스마트형 그늘막",
    "쉼터 종류":"그늘막",
    "쉼터 유형":"스마트형",
    "주소":"서울특별시 용산구 한강대로 304   (갈월동)",
    "운영시간":null,
    "휴무일":null,
    "운영시작일":null,
    "운영종료일":null,
    "설치장소":null,
    "면적":null,
    "이용가능인원":null,
    "냉난방기":"N",
    "추천날씨":"폭염",
    "실내\/외":"실외",
    "Wi-Fi":null,
    "충전시설":"N",
    "공기정화기":null,
    "decimalLatitude":37.54542627,
    "decimalLongitude":126.9723205
  },
  {
    "쉼터명":"고정형 그늘막",
    "쉼터 종류":"그늘막",
    "쉼터 유형":"고정형",
    "주소":"서울특별시 용산구 한강대로 305   (갈월동)",
    "운영시간":null,
    "휴무일":null,
    "운영시작일":null,
    "운영종료일":null,
    "설치장소":null,
    "면적":null,
    "이용가능인원":null,
    "냉난방기":"N",
    "추천날씨":"폭염",
    "실내\/외":"실외",
    "Wi-Fi":null,
    "충전시설":"N",
    "공기정화기":null,
    "decimalLatitude":37.54555205,
    "decimalLongitude":126.9715772
  },
  {
    "쉼터명":"스마트형 그늘막",
    "쉼터 종류":"그늘막",
    "쉼터 유형":"스마트형",
    "주소":"서울특별시 용산구 한강대로 366   (동자동)",
    "운영시간":null,
    "휴무일":null,
    "운영시작일":null,
    "운영종료일":null,
    "설치장소":null,
    "면적":null,
    "이용가능인원":null,
    "냉난방기":"N",
    "추천날씨":"폭염",
    "실내\/외":"실외",
    "Wi-Fi":null,
    "충전시설":"N",
    "공기정화기":null,
    "decimalLatitude":37.55108612,
    "decimalLongitude":126.9729114
  },
  {
    "쉼터명":"스마트형 그늘막",
    "쉼터 종류":"그늘막",
    "쉼터 유형":"스마트형",
    "주소":"서울특별시 용산구 청파로 378   (동자동)",
    "운영시간":null,
    "휴무일":null,
    "운영시작일":null,
    "운영종료일":null,
    "설치장소":null,
    "면적":null,
    "이용가능인원":null,
    "냉난방기":"N",
    "추천날씨":"폭염",
    "실내\/외":"실외",
    "Wi-Fi":null,
    "충전시설":"N",
    "공기정화기":null,
    "decimalLatitude":37.54911848,
    "decimalLongitude":126.9704843
  },
  {
    "쉼터명":"스마트형 그늘막",
    "쉼터 종류":"그늘막",
    "쉼터 유형":"스마트형",
    "주소":"서울특별시 용산구 한강대로 298   (남영동)",
    "운영시간":null,
    "휴무일":null,
    "운영시작일":null,
    "운영종료일":null,
    "설치장소":null,
    "면적":null,
    "이용가능인원":null,
    "냉난방기":"N",
    "추천날씨":"폭염",
    "실내\/외":"실외",
    "Wi-Fi":null,
    "충전시설":"N",
    "공기정화기":null,
    "decimalLatitude":37.54489028,
    "decimalLongitude":126.9723712
  },
  {
    "쉼터명":"스마트형 그늘막",
    "쉼터 종류":"그늘막",
    "쉼터 유형":"스마트형",
    "주소":"서울특별시 용산구 한강대로 350   (갈월동)",
    "운영시간":null,
    "휴무일":null,
    "운영시작일":null,
    "운영종료일":null,
    "설치장소":null,
    "면적":null,
    "이용가능인원":null,
    "냉난방기":"N",
    "추천날씨":"폭염",
    "실내\/외":"실외",
    "Wi-Fi":null,
    "충전시설":"N",
    "공기정화기":null,
    "decimalLatitude":37.54964742,
    "decimalLongitude":126.9721994
  },
  {
    "쉼터명":"고정형 그늘막",
    "쉼터 종류":"그늘막",
    "쉼터 유형":"고정형",
    "주소":"서울특별시 용산구 만리재로 202   (서계동)",
    "운영시간":null,
    "휴무일":null,
    "운영시작일":null,
    "운영종료일":null,
    "설치장소":null,
    "면적":null,
    "이용가능인원":null,
    "냉난방기":"N",
    "추천날씨":"폭염",
    "실내\/외":"실외",
    "Wi-Fi":null,
    "충전시설":"N",
    "공기정화기":null,
    "decimalLatitude":37.55494255,
    "decimalLongitude":126.9684629
  },
  {
    "쉼터명":"고정형 그늘막",
    "쉼터 종류":"그늘막",
    "쉼터 유형":"고정형",
    "주소":"서울특별시 용산구 청파로 304   (청파동1가)",
    "운영시간":null,
    "휴무일":null,
    "운영시작일":null,
    "운영종료일":null,
    "설치장소":null,
    "면적":null,
    "이용가능인원":null,
    "냉난방기":"N",
    "추천날씨":"폭염",
    "실내\/외":"실외",
    "Wi-Fi":null,
    "충전시설":"N",
    "공기정화기":null,
    "decimalLatitude":37.54691496,
    "decimalLongitude":126.9706876
  },
  {
    "쉼터명":"고정형 그늘막",
    "쉼터 종류":"그늘막",
    "쉼터 유형":"고정형",
    "주소":"서울특별시 용산구 청파로 297   (청파동2가)",
    "운영시간":null,
    "휴무일":null,
    "운영시작일":null,
    "운영종료일":null,
    "설치장소":null,
    "면적":null,
    "이용가능인원":null,
    "냉난방기":"N",
    "추천날씨":"폭염",
    "실내\/외":"실외",
    "Wi-Fi":null,
    "충전시설":"N",
    "공기정화기":null,
    "decimalLatitude":37.54617868,
    "decimalLongitude":126.9700577
  },
  {
    "쉼터명":"고정형 그늘막",
    "쉼터 종류":"그늘막",
    "쉼터 유형":"고정형",
    "주소":"서울특별시 용산구 청파로 322   (청파동1가)",
    "운영시간":null,
    "휴무일":null,
    "운영시작일":null,
    "운영종료일":null,
    "설치장소":null,
    "면적":null,
    "이용가능인원":null,
    "냉난방기":"N",
    "추천날씨":"폭염",
    "실내\/외":"실외",
    "Wi-Fi":null,
    "충전시설":"N",
    "공기정화기":null,
    "decimalLatitude":37.5484424,
    "decimalLongitude":126.9702306
  },
  {
    "쉼터명":"고정형 그늘막",
    "쉼터 종류":"그늘막",
    "쉼터 유형":"고정형",
    "주소":"서울특별시 용산구 청파로47길 100   (청파동2가)",
    "운영시간":null,
    "휴무일":null,
    "운영시작일":null,
    "운영종료일":null,
    "설치장소":null,
    "면적":null,
    "이용가능인원":null,
    "냉난방기":"N",
    "추천날씨":"폭염",
    "실내\/외":"실외",
    "Wi-Fi":null,
    "충전시설":"N",
    "공기정화기":null,
    "decimalLatitude":37.54547408,
    "decimalLongitude":126.9650744
  },
  {
    "쉼터명":"고정형 그늘막",
    "쉼터 종류":"그늘막",
    "쉼터 유형":"고정형",
    "주소":"서울특별시 용산구 청파로47길 100   (청파동2가)",
    "운영시간":null,
    "휴무일":null,
    "운영시작일":null,
    "운영종료일":null,
    "설치장소":null,
    "면적":null,
    "이용가능인원":null,
    "냉난방기":"N",
    "추천날씨":"폭염",
    "실내\/외":"실외",
    "Wi-Fi":null,
    "충전시설":"N",
    "공기정화기":null,
    "decimalLatitude":37.54547408,
    "decimalLongitude":126.9650744
  },
  {
    "쉼터명":"고정형 그늘막",
    "쉼터 종류":"그늘막",
    "쉼터 유형":"고정형",
    "주소":"서울특별시 용산구 청파로47길 100   (청파동2가)",
    "운영시간":null,
    "휴무일":null,
    "운영시작일":null,
    "운영종료일":null,
    "설치장소":null,
    "면적":null,
    "이용가능인원":null,
    "냉난방기":"N",
    "추천날씨":"폭염",
    "실내\/외":"실외",
    "Wi-Fi":null,
    "충전시설":"N",
    "공기정화기":null,
    "decimalLatitude":37.54547408,
    "decimalLongitude":126.9650744
  },
  {
    "쉼터명":"고정형 그늘막",
    "쉼터 종류":"그늘막",
    "쉼터 유형":"고정형",
    "주소":"서울특별시 용산구 청파로 139-25    (신계동)",
    "운영시간":null,
    "휴무일":null,
    "운영시작일":null,
    "운영종료일":null,
    "설치장소":null,
    "면적":null,
    "이용가능인원":null,
    "냉난방기":"N",
    "추천날씨":"폭염",
    "실내\/외":"실외",
    "Wi-Fi":null,
    "충전시설":"N",
    "공기정화기":null,
    "decimalLatitude":37.53508032,
    "decimalLongitude":126.9662814
  },
  {
    "쉼터명":"고정형 그늘막",
    "쉼터 종류":"그늘막",
    "쉼터 유형":"고정형",
    "주소":"서울특별시 용산구 청파로 139-25    (신계동)",
    "운영시간":null,
    "휴무일":null,
    "운영시작일":null,
    "운영종료일":null,
    "설치장소":null,
    "면적":null,
    "이용가능인원":null,
    "냉난방기":"N",
    "추천날씨":"폭염",
    "실내\/외":"실외",
    "Wi-Fi":null,
    "충전시설":"N",
    "공기정화기":null,
    "decimalLatitude":37.53508032,
    "decimalLongitude":126.9662814
  },
  {
    "쉼터명":"스마트형 그늘막",
    "쉼터 종류":"그늘막",
    "쉼터 유형":"스마트형",
    "주소":"서울특별시 용산구 원효로90길 11   (원효로1가, 용산더프라임)",
    "운영시간":null,
    "휴무일":null,
    "운영시작일":null,
    "운영종료일":null,
    "설치장소":null,
    "면적":null,
    "이용가능인원":null,
    "냉난방기":"N",
    "추천날씨":"폭염",
    "실내\/외":"실외",
    "Wi-Fi":null,
    "충전시설":"N",
    "공기정화기":null,
    "decimalLatitude":37.5403958,
    "decimalLongitude":126.9697185
  },
  {
    "쉼터명":"스마트형 그늘막",
    "쉼터 종류":"그늘막",
    "쉼터 유형":"스마트형",
    "주소":"서울특별시 용산구 청파로 241   (원효로1가)",
    "운영시간":null,
    "휴무일":null,
    "운영시작일":null,
    "운영종료일":null,
    "설치장소":null,
    "면적":null,
    "이용가능인원":null,
    "냉난방기":"N",
    "추천날씨":"폭염",
    "실내\/외":"실외",
    "Wi-Fi":null,
    "충전시설":"N",
    "공기정화기":null,
    "decimalLatitude":37.54115763,
    "decimalLongitude":126.9705825
  },
  {
    "쉼터명":"스마트형 그늘막",
    "쉼터 종류":"그늘막",
    "쉼터 유형":"스마트형",
    "주소":"서울특별시 용산구 백범로 341   (원효로1가, 리첸시아 용산)",
    "운영시간":null,
    "휴무일":null,
    "운영시작일":null,
    "운영종료일":null,
    "설치장소":null,
    "면적":null,
    "이용가능인원":null,
    "냉난방기":"N",
    "추천날씨":"폭염",
    "실내\/외":"실외",
    "Wi-Fi":null,
    "충전시설":"N",
    "공기정화기":null,
    "decimalLatitude":37.53793867,
    "decimalLongitude":126.9679734
  },
  {
    "쉼터명":"고정형 그늘막",
    "쉼터 종류":"그늘막",
    "쉼터 유형":"고정형",
    "주소":"서울특별시 용산구 원효로 71   (원효로4가)",
    "운영시간":null,
    "휴무일":null,
    "운영시작일":null,
    "운영종료일":null,
    "설치장소":null,
    "면적":null,
    "이용가능인원":null,
    "냉난방기":"N",
    "추천날씨":"폭염",
    "실내\/외":"실외",
    "Wi-Fi":null,
    "충전시설":"N",
    "공기정화기":null,
    "decimalLatitude":37.53294811,
    "decimalLongitude":126.9517604
  },
  {
    "쉼터명":"스마트형 그늘막",
    "쉼터 종류":"그늘막",
    "쉼터 유형":"스마트형",
    "주소":"서울특별시 용산구 원효로 57   (원효로4가)",
    "운영시간":null,
    "휴무일":null,
    "운영시작일":null,
    "운영종료일":null,
    "설치장소":null,
    "면적":null,
    "이용가능인원":null,
    "냉난방기":"N",
    "추천날씨":"폭염",
    "실내\/외":"실외",
    "Wi-Fi":null,
    "충전시설":"N",
    "공기정화기":null,
    "decimalLatitude":37.53341627,
    "decimalLongitude":126.9504529
  },
  {
    "쉼터명":"고정형 그늘막",
    "쉼터 종류":"그늘막",
    "쉼터 유형":"고정형",
    "주소":"서울특별시 용산구 원효로 40   (원효로4가, 강변삼성아파트)",
    "운영시간":null,
    "휴무일":null,
    "운영시작일":null,
    "운영종료일":null,
    "설치장소":null,
    "면적":null,
    "이용가능인원":null,
    "냉난방기":"N",
    "추천날씨":"폭염",
    "실내\/외":"실외",
    "Wi-Fi":null,
    "충전시설":"N",
    "공기정화기":null,
    "decimalLatitude":37.53391601,
    "decimalLongitude":126.9493026
  },
  {
    "쉼터명":"고정형 그늘막",
    "쉼터 종류":"그늘막",
    "쉼터 유형":"고정형",
    "주소":"서울특별시 용산구 효창원로 177-18    (효창동)",
    "운영시간":null,
    "휴무일":null,
    "운영시작일":null,
    "운영종료일":null,
    "설치장소":null,
    "면적":null,
    "이용가능인원":null,
    "냉난방기":"N",
    "추천날씨":"폭염",
    "실내\/외":"실외",
    "Wi-Fi":null,
    "충전시설":"N",
    "공기정화기":null,
    "decimalLatitude":37.54495741,
    "decimalLongitude":126.9622909
  },
  {
    "쉼터명":"고정형 그늘막",
    "쉼터 종류":"그늘막",
    "쉼터 유형":"고정형",
    "주소":"서울특별시 용산구 효창원로 177-18    (효창동)",
    "운영시간":null,
    "휴무일":null,
    "운영시작일":null,
    "운영종료일":null,
    "설치장소":null,
    "면적":null,
    "이용가능인원":null,
    "냉난방기":"N",
    "추천날씨":"폭염",
    "실내\/외":"실외",
    "Wi-Fi":null,
    "충전시설":"N",
    "공기정화기":null,
    "decimalLatitude":37.54495741,
    "decimalLongitude":126.9622909
  },
  {
    "쉼터명":"고정형 그늘막",
    "쉼터 종류":"그늘막",
    "쉼터 유형":"고정형",
    "주소":"서울특별시 용산구 백범로 260   (효창동, 효창파크 푸르지오)",
    "운영시간":null,
    "휴무일":null,
    "운영시작일":null,
    "운영종료일":null,
    "설치장소":null,
    "면적":null,
    "이용가능인원":null,
    "냉난방기":"N",
    "추천날씨":"폭염",
    "실내\/외":"실외",
    "Wi-Fi":null,
    "충전시설":"N",
    "공기정화기":null,
    "decimalLatitude":37.54049594,
    "decimalLongitude":126.9577964
  },
  {
    "쉼터명":"고정형 그늘막",
    "쉼터 종류":"그늘막",
    "쉼터 유형":"고정형",
    "주소":"서울특별시 용산구 백범로 317   (원효로1가)",
    "운영시간":null,
    "휴무일":null,
    "운영시작일":null,
    "운영종료일":null,
    "설치장소":null,
    "면적":null,
    "이용가능인원":null,
    "냉난방기":"N",
    "추천날씨":"폭염",
    "실내\/외":"실외",
    "Wi-Fi":null,
    "충전시설":"N",
    "공기정화기":null,
    "decimalLatitude":37.53864746,
    "decimalLongitude":126.9644046
  },
  {
    "쉼터명":"스마트형 그늘막",
    "쉼터 종류":"그늘막",
    "쉼터 유형":"스마트형",
    "주소":"서울특별시 용산구 효창원로 120-1    (용문동)",
    "운영시간":null,
    "휴무일":null,
    "운영시작일":null,
    "운영종료일":null,
    "설치장소":null,
    "면적":null,
    "이용가능인원":null,
    "냉난방기":"N",
    "추천날씨":"폭염",
    "실내\/외":"실외",
    "Wi-Fi":null,
    "충전시설":"N",
    "공기정화기":null,
    "decimalLatitude":37.53873765,
    "decimalLongitude":126.9612516
  },
  {
    "쉼터명":"고정형 그늘막",
    "쉼터 종류":"그늘막",
    "쉼터 유형":"고정형",
    "주소":"서울특별시 용산구 효창원로 120-1    (용문동)",
    "운영시간":null,
    "휴무일":null,
    "운영시작일":null,
    "운영종료일":null,
    "설치장소":null,
    "면적":null,
    "이용가능인원":null,
    "냉난방기":"N",
    "추천날씨":"폭염",
    "실내\/외":"실외",
    "Wi-Fi":null,
    "충전시설":"N",
    "공기정화기":null,
    "decimalLatitude":37.53873765,
    "decimalLongitude":126.9612516
  },
  {
    "쉼터명":"고정형 그늘막",
    "쉼터 종류":"그늘막",
    "쉼터 유형":"고정형",
    "주소":"서울특별시 용산구 백범로 286   (용문동)",
    "운영시간":null,
    "휴무일":null,
    "운영시작일":null,
    "운영종료일":null,
    "설치장소":null,
    "면적":null,
    "이용가능인원":null,
    "냉난방기":"N",
    "추천날씨":"폭염",
    "실내\/외":"실외",
    "Wi-Fi":null,
    "충전시설":"N",
    "공기정화기":null,
    "decimalLatitude":37.53924901,
    "decimalLongitude":126.9608376
  },
  {
    "쉼터명":"고정형 그늘막",
    "쉼터 종류":"그늘막",
    "쉼터 유형":"고정형",
    "주소":"서울특별시 용산구 원효로71길 40   (용문동)",
    "운영시간":null,
    "휴무일":null,
    "운영시작일":null,
    "운영종료일":null,
    "설치장소":null,
    "면적":null,
    "이용가능인원":null,
    "냉난방기":"N",
    "추천날씨":"폭염",
    "실내\/외":"실외",
    "Wi-Fi":null,
    "충전시설":"N",
    "공기정화기":null,
    "decimalLatitude":null,
    "decimalLongitude":null
  },
  {
    "쉼터명":"고정형 그늘막",
    "쉼터 종류":"그늘막",
    "쉼터 유형":"고정형",
    "주소":"서울특별시 용산구 원효로71길 50   (용문동)",
    "운영시간":null,
    "휴무일":null,
    "운영시작일":null,
    "운영종료일":null,
    "설치장소":null,
    "면적":null,
    "이용가능인원":null,
    "냉난방기":"N",
    "추천날씨":"폭염",
    "실내\/외":"실외",
    "Wi-Fi":null,
    "충전시설":"N",
    "공기정화기":null,
    "decimalLatitude":37.53844953,
    "decimalLongitude":126.9624318
  },
  {
    "쉼터명":"고정형 그늘막",
    "쉼터 종류":"그늘막",
    "쉼터 유형":"고정형",
    "주소":"서울특별시 용산구 한강대로 205   (한강로1가, 용산파크자이)",
    "운영시간":null,
    "휴무일":null,
    "운영시작일":null,
    "운영종료일":null,
    "설치장소":null,
    "면적":null,
    "이용가능인원":null,
    "냉난방기":"N",
    "추천날씨":"폭염",
    "실내\/외":"실외",
    "Wi-Fi":null,
    "충전시설":"N",
    "공기정화기":null,
    "decimalLatitude":37.53668353,
    "decimalLongitude":126.9728087
  },
  {
    "쉼터명":"고정형 그늘막",
    "쉼터 종류":"그늘막",
    "쉼터 유형":"고정형",
    "주소":"서울특별시 용산구 한강대로 205   (한강로1가, 용산파크자이)",
    "운영시간":null,
    "휴무일":null,
    "운영시작일":null,
    "운영종료일":null,
    "설치장소":null,
    "면적":null,
    "이용가능인원":null,
    "냉난방기":"N",
    "추천날씨":"폭염",
    "실내\/외":"실외",
    "Wi-Fi":null,
    "충전시설":"N",
    "공기정화기":null,
    "decimalLatitude":37.53668353,
    "decimalLongitude":126.9728087
  },
  {
    "쉼터명":"스마트형 그늘막",
    "쉼터 종류":"그늘막",
    "쉼터 유형":"스마트형",
    "주소":"서울특별시 용산구 한강대로 187   (한강로1가)",
    "운영시간":null,
    "휴무일":null,
    "운영시작일":null,
    "운영종료일":null,
    "설치장소":null,
    "면적":null,
    "이용가능인원":null,
    "냉난방기":"N",
    "추천날씨":"폭염",
    "실내\/외":"실외",
    "Wi-Fi":null,
    "충전시설":"N",
    "공기정화기":null,
    "decimalLatitude":37.5354836,
    "decimalLongitude":126.9732956
  },
  {
    "쉼터명":"스마트형 그늘막",
    "쉼터 종류":"그늘막",
    "쉼터 유형":"스마트형",
    "주소":"서울특별시 용산구 이촌로 125   (한강로3가)",
    "운영시간":null,
    "휴무일":null,
    "운영시작일":null,
    "운영종료일":null,
    "설치장소":null,
    "면적":null,
    "이용가능인원":null,
    "냉난방기":"N",
    "추천날씨":"폭염",
    "실내\/외":"실외",
    "Wi-Fi":null,
    "충전시설":"N",
    "공기정화기":null,
    "decimalLatitude":37.52301528,
    "decimalLongitude":126.9615752
  },
  {
    "쉼터명":"스마트형 그늘막",
    "쉼터 종류":"그늘막",
    "쉼터 유형":"스마트형",
    "주소":"서울특별시 용산구 이태원로 3   (한강로1가)",
    "운영시간":null,
    "휴무일":null,
    "운영시작일":null,
    "운영종료일":null,
    "설치장소":null,
    "면적":null,
    "이용가능인원":null,
    "냉난방기":"N",
    "추천날씨":"폭염",
    "실내\/외":"실외",
    "Wi-Fi":null,
    "충전시설":"N",
    "공기정화기":null,
    "decimalLatitude":37.535519,
    "decimalLongitude":126.9748989
  },
  {
    "쉼터명":"고정형 그늘막",
    "쉼터 종류":"그늘막",
    "쉼터 유형":"고정형",
    "주소":"서울특별시 용산구 한강대로 196   (한강로1가)",
    "운영시간":null,
    "휴무일":null,
    "운영시작일":null,
    "운영종료일":null,
    "설치장소":null,
    "면적":null,
    "이용가능인원":null,
    "냉난방기":"N",
    "추천날씨":"폭염",
    "실내\/외":"실외",
    "Wi-Fi":null,
    "충전시설":"N",
    "공기정화기":null,
    "decimalLatitude":37.53573225,
    "decimalLongitude":126.9748055
  },
  {
    "쉼터명":"고정형 그늘막",
    "쉼터 종류":"그늘막",
    "쉼터 유형":"고정형",
    "주소":"서울특별시 용산구 한강대로 109   (한강로2가)",
    "운영시간":null,
    "휴무일":null,
    "운영시작일":null,
    "운영종료일":null,
    "설치장소":null,
    "면적":null,
    "이용가능인원":null,
    "냉난방기":"N",
    "추천날씨":"폭염",
    "실내\/외":"실외",
    "Wi-Fi":null,
    "충전시설":"N",
    "공기정화기":null,
    "decimalLatitude":37.53000469,
    "decimalLongitude":126.9681664
  },
  {
    "쉼터명":"스마트형 그늘막",
    "쉼터 종류":"그늘막",
    "쉼터 유형":"스마트형",
    "주소":"서울특별시 용산구 한강대로 95   (한강로2가, 래미안용산 더 센트럴)",
    "운영시간":null,
    "휴무일":null,
    "운영시작일":null,
    "운영종료일":null,
    "설치장소":null,
    "면적":null,
    "이용가능인원":null,
    "냉난방기":"N",
    "추천날씨":"폭염",
    "실내\/외":"실외",
    "Wi-Fi":null,
    "충전시설":"N",
    "공기정화기":null,
    "decimalLatitude":37.52881739,
    "decimalLongitude":126.9666538
  },
  {
    "쉼터명":"스마트형 그늘막",
    "쉼터 종류":"그늘막",
    "쉼터 유형":"스마트형",
    "주소":"서울특별시 용산구 새창로 217   (한강로2가)",
    "운영시간":null,
    "휴무일":null,
    "운영시작일":null,
    "운영종료일":null,
    "설치장소":null,
    "면적":null,
    "이용가능인원":null,
    "냉난방기":"N",
    "추천날씨":"폭염",
    "실내\/외":"실외",
    "Wi-Fi":null,
    "충전시설":"N",
    "공기정화기":null,
    "decimalLatitude":37.53021668,
    "decimalLongitude":126.9677763
  },
  {
    "쉼터명":"스마트형 그늘막",
    "쉼터 종류":"그늘막",
    "쉼터 유형":"스마트형",
    "주소":"서울특별시 용산구 한강대로 95   (한강로2가, 래미안용산 더 센트럴)",
    "운영시간":null,
    "휴무일":null,
    "운영시작일":null,
    "운영종료일":null,
    "설치장소":null,
    "면적":null,
    "이용가능인원":null,
    "냉난방기":"N",
    "추천날씨":"폭염",
    "실내\/외":"실외",
    "Wi-Fi":null,
    "충전시설":"N",
    "공기정화기":null,
    "decimalLatitude":37.52881739,
    "decimalLongitude":126.9666538
  },
  {
    "쉼터명":"스마트형 그늘막",
    "쉼터 종류":"그늘막",
    "쉼터 유형":"스마트형",
    "주소":"서울특별시 용산구 한강대로21나길 40   (한강로3가)",
    "운영시간":null,
    "휴무일":null,
    "운영시작일":null,
    "운영종료일":null,
    "설치장소":null,
    "면적":null,
    "이용가능인원":null,
    "냉난방기":"N",
    "추천날씨":"폭염",
    "실내\/외":"실외",
    "Wi-Fi":null,
    "충전시설":"N",
    "공기정화기":null,
    "decimalLatitude":37.52824913,
    "decimalLongitude":126.9642275
  },
  {
    "쉼터명":"고정형 그늘막",
    "쉼터 종류":"그늘막",
    "쉼터 유형":"고정형",
    "주소":"서울특별시 용산구 한강대로 69   (한강로2가, 용산푸르지오써밋)",
    "운영시간":null,
    "휴무일":null,
    "운영시작일":null,
    "운영종료일":null,
    "설치장소":null,
    "면적":null,
    "이용가능인원":null,
    "냉난방기":"N",
    "추천날씨":"폭염",
    "실내\/외":"실외",
    "Wi-Fi":null,
    "충전시설":"N",
    "공기정화기":null,
    "decimalLatitude":37.52704046,
    "decimalLongitude":126.9648922
  },
  {
    "쉼터명":"고정형 그늘막",
    "쉼터 종류":"그늘막",
    "쉼터 유형":"고정형",
    "주소":"서울특별시 용산구 한강대로 57   (한강로3가)",
    "운영시간":null,
    "휴무일":null,
    "운영시작일":null,
    "운영종료일":null,
    "설치장소":null,
    "면적":null,
    "이용가능인원":null,
    "냉난방기":"N",
    "추천날씨":"폭염",
    "실내\/외":"실외",
    "Wi-Fi":null,
    "충전시설":"N",
    "공기정화기":null,
    "decimalLatitude":37.52614145,
    "decimalLongitude":126.9646349
  },